[
  {
    "id": 1682,
    "longitude": 24.654622939587,
    "type": "children",
    "district": "Haabersti",
    "latitude": 59.412571908166,
    "name": "Õismäe tee õueala 1",
    "href": "/object/view/1682"
  },
  {
    "id": 1683,
    "longitude": 24.652008700069,
    "type": "children",
    "district": "Haabersti",
    "latitude": 59.411249089328,
    "name": "Õismäe tee 21a",
    "href": "/object/view/1683"
  },
  {
    "id": 1684,
    "longitude": 24.649609022229,
    "type": "children",
    "district": "Haabersti",
    "latitude": 59.41224383765,
    "name": "Õismäe tee 32a",
    "href": "/object/view/1684"
  },
  {
    "id": 1685,
    "longitude": 24.647958618468,
    "type": "children",
    "district": "Haabersti",
    "latitude": 59.409608857724,
    "name": "Õismäe tee 43, 45 ja 47 juures",
    "href": "/object/view/1685"
  },
  {
    "id": 1686,
    "longitude": 24.646117274505,
    "type": "children",
    "district": "Haabersti",
    "latitude": 59.409511797025,
    "name": "Õismäe tee 55a",
    "href": "/object/view/1686"
  },
  {
    "id": 1687,
    "longitude": 24.637903851622,
    "type": "children",
    "district": "Haabersti",
    "latitude": 59.41550309846,
    "name": "Paldiski mnt 183a",
    "href": "/object/view/1687"
  },
  {
    "id": 1689,
    "longitude": 24.639314650306,
    "type": "children",
    "district": "Haabersti",
    "latitude": 59.417890433073,
    "name": "Õismäe tee õueala 7",
    "href": "/object/view/1689"
  },
  {
    "id": 1691,
    "longitude": 24.643235852634,
    "type": "children",
    "district": "Haabersti",
    "latitude": 59.420218003333,
    "name": "Õismäe tee õueala 8",
    "href": "/object/view/1691"
  },
  {
    "id": 1693,
    "longitude": 24.646775588724,
    "type": "children",
    "district": "Haabersti",
    "latitude": 59.421556114661,
    "name": "Päevalille tn 9a",
    "href": "/object/view/1693"
  },
  {
    "id": 1695,
    "longitude": 24.652458862773,
    "type": "children",
    "district": "Haabersti",
    "latitude": 59.41460740597,
    "name": "Õismäe tee 150b",
    "href": "/object/view/1695"
  },
  {
    "id": 1696,
    "longitude": 24.651309128715,
    "type": "children",
    "district": "Haabersti",
    "latitude": 59.413293160127,
    "name": "Õismäe tee T3",
    "href": "/object/view/1696"
  },
  {
    "id": 1698,
    "longitude": 24.644642535764,
    "type": "children",
    "district": "Haabersti",
    "latitude": 59.412141328322,
    "name": "Õismäe tee 54a",
    "href": "/object/view/1698"
  },
  {
    "id": 1699,
    "longitude": 24.641272508134,
    "type": "children",
    "district": "Haabersti",
    "latitude": 59.414415353812,
    "name": "Õismäe tee 74a",
    "href": "/object/view/1699"
  },
  {
    "id": 1701,
    "longitude": 24.641360445565,
    "type": "children",
    "district": "Haabersti",
    "latitude": 59.416859287631,
    "name": "Õismäe tee 106a",
    "href": "/object/view/1701"
  },
  {
    "id": 1702,
    "longitude": 24.649174391546,
    "type": "children",
    "district": "Haabersti",
    "latitude": 59.41033069391,
    "name": "Õismäe tee õueala 3",
    "href": "/object/view/1702"
  },
  {
    "id": 1705,
    "longitude": 24.643642270282,
    "type": "children",
    "district": "Haabersti",
    "latitude": 59.410223226805,
    "name": "Õismäe tee õueala 4",
    "href": "/object/view/1705"
  },
  {
    "id": 1706,
    "longitude": 24.643473344583,
    "type": "children",
    "district": "Haabersti",
    "latitude": 59.410997040597,
    "name": "Õismäe tee õueala 4",
    "href": "/object/view/1706"
  },
  {
    "id": 1708,
    "longitude": 24.63896195124,
    "type": "children",
    "district": "Haabersti",
    "latitude": 59.411327286617,
    "name": "Õismäe tee õueala 5",
    "href": "/object/view/1708"
  },
  {
    "id": 1710,
    "longitude": 24.637481630669,
    "type": "children",
    "district": "Haabersti",
    "latitude": 59.413421736404,
    "name": "Õismäe tee õueala 6",
    "href": "/object/view/1710"
  },
  {
    "id": 1722,
    "longitude": 24.644620517839,
    "type": "children",
    "district": "Haabersti",
    "latitude": 59.418614107828,
    "name": "Õismäe tee 118a",
    "href": "/object/view/1722"
  },
  {
    "id": 1724,
    "longitude": 24.651403274676,
    "type": "children",
    "district": "Haabersti",
    "latitude": 59.41660627932,
    "name": "Õismäe tee 150b",
    "href": "/object/view/1724"
  },
  {
    "id": 1728,
    "longitude": 24.634283274303,
    "type": "children",
    "district": "Haabersti",
    "latitude": 59.408525672408,
    "name": "Järveotsa tee õueala 1",
    "href": "/object/view/1728"
  },
  {
    "id": 1729,
    "longitude": 24.636952307266,
    "type": "children",
    "district": "Haabersti",
    "latitude": 59.408329642676,
    "name": "Järveotsa tee 17b",
    "href": "/object/view/1729"
  },
  {
    "id": 1731,
    "longitude": 24.638374861317,
    "type": "children",
    "district": "Haabersti",
    "latitude": 59.408206319779,
    "name": "Järveotsa tee õueala 2",
    "href": "/object/view/1731"
  },
  {
    "id": 1733,
    "longitude": 24.641295899525,
    "type": "children",
    "district": "Haabersti",
    "latitude": 59.408007195202,
    "name": "Järveotsa tee 35c",
    "href": "/object/view/1733"
  },
  {
    "id": 1734,
    "longitude": 24.642925619381,
    "type": "children",
    "district": "Haabersti",
    "latitude": 59.407884045661,
    "name": "Järveotsa tee 47a",
    "href": "/object/view/1734"
  },
  {
    "id": 1738,
    "longitude": 24.629314643224,
    "type": "children",
    "district": "Haabersti",
    "latitude": 59.407912352711,
    "name": "Paldiski mnt 227c",
    "href": "/object/view/1738"
  },
  {
    "id": 1739,
    "longitude": 24.698440892085,
    "type": "children",
    "district": "Haabersti",
    "latitude": 59.428688187495,
    "name": "Pirni tn 4a",
    "href": "/object/view/1739"
  },
  {
    "id": 1741,
    "longitude": 24.657718642819,
    "type": "children",
    "district": "Haabersti",
    "latitude": 59.413688484389,
    "name": "Õismäe tee 199a",
    "href": "/object/view/1741"
  },
  {
    "id": 1744,
    "longitude": 24.654955051219,
    "type": "children",
    "district": "Haabersti",
    "latitude": 59.4163140524,
    "name": "Ehitajate tee õueala 2",
    "href": "/object/view/1744"
  },
  {
    "id": 1745,
    "longitude": 24.653780646076,
    "type": "children",
    "district": "Haabersti",
    "latitude": 59.41721238926,
    "name": "Õismäe tee 191a",
    "href": "/object/view/1745"
  },
  {
    "id": 1748,
    "longitude": 24.631120775946,
    "type": "children",
    "district": "Haabersti",
    "latitude": 59.403814434361,
    "name": "Astangu tn 30c",
    "href": "/object/view/1748"
  },
  {
    "id": 1750,
    "longitude": 24.635367976437,
    "type": "children",
    "district": "Haabersti",
    "latitude": 59.403500921712,
    "name": "Astangu tn 38a",
    "href": "/object/view/1750"
  },
  {
    "id": 1751,
    "longitude": 24.637079244648,
    "type": "children",
    "district": "Haabersti",
    "latitude": 59.403291184061,
    "name": "Astangu tn 44a",
    "href": "/object/view/1751"
  },
  {
    "id": 1754,
    "longitude": 24.639991590017,
    "type": "children",
    "district": "Haabersti",
    "latitude": 59.404524985038,
    "name": "Astangu tn 52a",
    "href": "/object/view/1754"
  },
  {
    "id": 1755,
    "longitude": 24.640931217201,
    "type": "children",
    "district": "Haabersti",
    "latitude": 59.404476975565,
    "name": "Astangu tn 66b",
    "href": "/object/view/1755"
  },
  {
    "id": 1764,
    "longitude": 24.588239846874,
    "type": "children",
    "district": "Haabersti",
    "latitude": 59.440037580496,
    "name": "Sumba tänav",
    "href": "/object/view/1764"
  },
  {
    "id": 1766,
    "longitude": 24.585513206471,
    "type": "children",
    "district": "Haabersti",
    "latitude": 59.438815901164,
    "name": "Västra tänav",
    "href": "/object/view/1766"
  },
  {
    "id": 1767,
    "longitude": 24.583845648146,
    "type": "children",
    "district": "Haabersti",
    "latitude": 59.439074020529,
    "name": "Abara tänav T1",
    "href": "/object/view/1767"
  },
  {
    "id": 1768,
    "longitude": 24.735924565607,
    "type": "children",
    "district": "Kesklinn",
    "latitude": 59.416433905338,
    "name": "Asula 13",
    "href": "/object/view/1768"
  },
  {
    "id": 1769,
    "longitude": 24.732720524467,
    "type": "children",
    "district": "Kesklinn",
    "latitude": 59.433074841496,
    "name": "Falgi park",
    "href": "/object/view/1769"
  },
  {
    "id": 1770,
    "longitude": 24.735525901572,
    "type": "children",
    "district": "Kesklinn",
    "latitude": 59.434377373754,
    "name": "Hirvepark",
    "href": "/object/view/1770"
  },
  {
    "id": 1774,
    "longitude": 24.742467475919,
    "type": "children",
    "district": "Kesklinn",
    "latitude": 59.414346752133,
    "name": "Juurdeveo tn 13 // Kauba tn 15",
    "href": "/object/view/1774"
  },
  {
    "id": 1776,
    "longitude": 24.753252213802,
    "type": "children",
    "district": "Kesklinn",
    "latitude": 59.422769736041,
    "name": "Vaikne park",
    "href": "/object/view/1776"
  },
  {
    "id": 1777,
    "longitude": 24.737441178296,
    "type": "children",
    "district": "Kesklinn",
    "latitude": 59.421902221866,
    "name": "Koidu tn 112 ",
    "href": "/object/view/1777"
  },
  {
    "id": 1779,
    "longitude": 24.771944187172,
    "type": "children",
    "district": "Kesklinn",
    "latitude": 59.428386426669,
    "name": "Lastekodu tn 32",
    "href": "/object/view/1779"
  },
  {
    "id": 1781,
    "longitude": 24.752053873541,
    "type": "children",
    "district": "Kesklinn",
    "latitude": 59.439969385529,
    "name": "Kanuti aed",
    "href": "/object/view/1781"
  },
  {
    "id": 1782,
    "longitude": 24.755369821376,
    "type": "children",
    "district": "Kesklinn",
    "latitude": 59.431894379502,
    "name": "Lembitu park",
    "href": "/object/view/1782"
  },
  {
    "id": 1784,
    "longitude": 24.765981416533,
    "type": "children",
    "district": "Kesklinn",
    "latitude": 59.434008034035,
    "name": "Politseiaed",
    "href": "/object/view/1784"
  },
  {
    "id": 1786,
    "longitude": 24.733509757672,
    "type": "children",
    "district": "Kesklinn",
    "latitude": 59.427543075187,
    "name": "Suur-Ameerika tn 35a",
    "href": "/object/view/1786"
  },
  {
    "id": 1787,
    "longitude": 24.743636975396,
    "type": "children",
    "district": "Kesklinn",
    "latitude": 59.441542809542,
    "name": "Tornide väljak",
    "href": "/object/view/1787"
  },
  {
    "id": 1788,
    "longitude": 24.766065848822,
    "type": "children",
    "district": "Kesklinn",
    "latitude": 59.427327708878,
    "name": "Püssirohu tn 5",
    "href": "/object/view/1788"
  },
  {
    "id": 1789,
    "longitude": 24.725020426885,
    "type": "children",
    "district": "Kristiine",
    "latitude": 59.403467331781,
    "name": "Seebi tn 34",
    "href": "/object/view/1789"
  },
  {
    "id": 1790,
    "longitude": 24.716914194824,
    "type": "children",
    "district": "Kristiine",
    "latitude": 59.41451472392,
    "name": "Nõmme tee 52 ",
    "href": "/object/view/1790"
  },
  {
    "id": 1792,
    "longitude": 24.709472858197,
    "type": "children",
    "district": "Kristiine",
    "latitude": 59.404123126071,
    "name": "Nõmme tee 107 plats 1",
    "href": "/object/view/1792"
  },
  {
    "id": 1794,
    "longitude": 24.70998934763,
    "type": "children",
    "district": "Kristiine",
    "latitude": 59.429349132508,
    "name": "Vaarika tn 15a",
    "href": "/object/view/1794"
  },
  {
    "id": 1795,
    "longitude": 24.724227283523,
    "type": "children",
    "district": "Kristiine",
    "latitude": 59.408434778595,
    "name": "Tondi tn 46",
    "href": "/object/view/1795"
  },
  {
    "id": 1796,
    "longitude": 24.710618813214,
    "type": "children",
    "district": "Kristiine",
    "latitude": 59.426177628651,
    "name": "Mooni tn 30d",
    "href": "/object/view/1796"
  },
  {
    "id": 1799,
    "longitude": 24.702804238623,
    "type": "children",
    "district": "Kristiine",
    "latitude": 59.422142024083,
    "name": "Kirsi tn 8a",
    "href": "/object/view/1799"
  },
  {
    "id": 1800,
    "longitude": 24.700768952822,
    "type": "children",
    "district": "Kristiine",
    "latitude": 59.419876615549,
    "name": "Kuldnoka tn 12a",
    "href": "/object/view/1800"
  },
  {
    "id": 1801,
    "longitude": 24.719746815384,
    "type": "children",
    "district": "Kristiine",
    "latitude": 59.400378873893,
    "name": "Järve tn 25a",
    "href": "/object/view/1801"
  },
  {
    "id": 1803,
    "longitude": 24.728212824468,
    "type": "children",
    "district": "Kristiine",
    "latitude": 59.42172377531,
    "name": "Kotka tn 8a",
    "href": "/object/view/1803"
  },
  {
    "id": 1805,
    "longitude": 24.705722134818,
    "type": "children",
    "district": "Kristiine",
    "latitude": 59.420448858525,
    "name": "Tedre tn 77a",
    "href": "/object/view/1805"
  },
  {
    "id": 1807,
    "longitude": 24.704035880239,
    "type": "children",
    "district": "Kristiine",
    "latitude": 59.420725770225,
    "name": "Tedre tn 81a",
    "href": "/object/view/1807"
  },
  {
    "id": 1808,
    "longitude": 24.849828886861,
    "type": "children",
    "district": "Lasnamäe",
    "latitude": 59.438566025499,
    "name": "Anni tn 8b/ Vilisuu tn 15",
    "href": "/object/view/1808"
  },
  {
    "id": 1809,
    "longitude": 24.844283064319,
    "type": "children",
    "district": "Lasnamäe",
    "latitude": 59.443837449595,
    "name": "Arbu tn 13a",
    "href": "/object/view/1809"
  },
  {
    "id": 1814,
    "longitude": 24.836866384303,
    "type": "children",
    "district": "Lasnamäe",
    "latitude": 59.438058767904,
    "name": "M. Härma tn 1a",
    "href": "/object/view/1814"
  },
  {
    "id": 1816,
    "longitude": 24.829983841923,
    "type": "children",
    "district": "Lasnamäe",
    "latitude": 59.437354294218,
    "name": "Kalevipoja põik 2b",
    "href": "/object/view/1816"
  },
  {
    "id": 1817,
    "longitude": 24.834924049588,
    "type": "children",
    "district": "Lasnamäe",
    "latitude": 59.435421643998,
    "name": "Punane tn 43c",
    "href": "/object/view/1817"
  },
  {
    "id": 1822,
    "longitude": 24.849139508532,
    "type": "children",
    "district": "Lasnamäe",
    "latitude": 59.449498694786,
    "name": "Paasiku 3 plats 1",
    "href": "/object/view/1822"
  },
  {
    "id": 1825,
    "longitude": 24.863334498559,
    "type": "children",
    "district": "Lasnamäe",
    "latitude": 59.453437000538,
    "name": "Kihnu tn 1a",
    "href": "/object/view/1825"
  },
  {
    "id": 1829,
    "longitude": 24.872723242494,
    "type": "children",
    "district": "Lasnamäe",
    "latitude": 59.445494243789,
    "name": "Kivila tn 19a",
    "href": "/object/view/1829"
  },
  {
    "id": 1830,
    "longitude": 24.8699461552,
    "type": "children",
    "district": "Lasnamäe",
    "latitude": 59.444037822481,
    "name": "Kivila tn 18a",
    "href": "/object/view/1830"
  },
  {
    "id": 1833,
    "longitude": 24.875858150321,
    "type": "children",
    "district": "Lasnamäe",
    "latitude": 59.444985389532,
    "name": "Kivila tn 34a",
    "href": "/object/view/1833"
  },
  {
    "id": 1837,
    "longitude": 24.866854283743,
    "type": "children",
    "district": "Lasnamäe",
    "latitude": 59.446089807178,
    "name": "Kivila tn 5a (Kivila peremänguväljak plats 1)",
    "href": "/object/view/1837"
  },
  {
    "id": 1838,
    "longitude": 24.872257825593,
    "type": "children",
    "district": "Lasnamäe",
    "latitude": 59.448001125509,
    "name": "Muhu tn 10b",
    "href": "/object/view/1838"
  },
  {
    "id": 1840,
    "longitude": 24.794716311732,
    "type": "children",
    "district": "Lasnamäe",
    "latitude": 59.425708214207,
    "name": "Tuulemäe tn 4a",
    "href": "/object/view/1840"
  },
  {
    "id": 1845,
    "longitude": 24.834383216521,
    "type": "children",
    "district": "Lasnamäe",
    "latitude": 59.441048733574,
    "name": "Võru tn 4",
    "href": "/object/view/1845"
  },
  {
    "id": 1847,
    "longitude": 24.885843968748,
    "type": "children",
    "district": "Lasnamäe",
    "latitude": 59.447005271451,
    "name": "K. Kärberi tn 23a",
    "href": "/object/view/1847"
  },
  {
    "id": 1848,
    "longitude": 24.885313729985,
    "type": "children",
    "district": "Lasnamäe",
    "latitude": 59.445332262549,
    "name": "K. Kärberi tn 22a",
    "href": "/object/view/1848"
  },
  {
    "id": 1849,
    "longitude": 24.891160335349,
    "type": "children",
    "district": "Lasnamäe",
    "latitude": 59.448090101488,
    "name": "K. Kärberi tn 37a",
    "href": "/object/view/1849"
  },
  {
    "id": 1854,
    "longitude": 24.893855362658,
    "type": "children",
    "district": "Lasnamäe",
    "latitude": 59.447161862882,
    "name": "K. Kärberi tn 60a",
    "href": "/object/view/1854"
  },
  {
    "id": 1862,
    "longitude": 24.866168813256,
    "type": "children",
    "district": "Lasnamäe",
    "latitude": 59.448403795203,
    "name": "Muhu tn 2a",
    "href": "/object/view/1862"
  },
  {
    "id": 1864,
    "longitude": 24.871538699144,
    "type": "children",
    "district": "Lasnamäe",
    "latitude": 59.450801934075,
    "name": "Linnamäe tee 25b",
    "href": "/object/view/1864"
  },
  {
    "id": 1865,
    "longitude": 24.877197649586,
    "type": "children",
    "district": "Lasnamäe",
    "latitude": 59.450543812894,
    "name": "Linnamäe tee 45b",
    "href": "/object/view/1865"
  },
  {
    "id": 1868,
    "longitude": 24.883408458627,
    "type": "children",
    "district": "Lasnamäe",
    "latitude": 59.449955712956,
    "name": "Linnamäe tee 81a",
    "href": "/object/view/1868"
  },
  {
    "id": 1869,
    "longitude": 24.884789236218,
    "type": "children",
    "district": "Lasnamäe",
    "latitude": 59.449978391941,
    "name": "Linnamäe tee 85a",
    "href": "/object/view/1869"
  },
  {
    "id": 1871,
    "longitude": 24.840756911771,
    "type": "children",
    "district": "Lasnamäe",
    "latitude": 59.441526613891,
    "name": "Liikuri tn 68a // Loitsu tn 2a",
    "href": "/object/view/1871"
  },
  {
    "id": 1872,
    "longitude": 24.839843509658,
    "type": "children",
    "district": "Lasnamäe",
    "latitude": 59.442056061541,
    "name": "Liikuri tn 68a // Loitsu tn 2a",
    "href": "/object/view/1872"
  },
  {
    "id": 1873,
    "longitude": 24.837984067672,
    "type": "children",
    "district": "Lasnamäe",
    "latitude": 59.442189351357,
    "name": "Loitsu tn 3b",
    "href": "/object/view/1873"
  },
  {
    "id": 1874,
    "longitude": 24.872046108439,
    "type": "children",
    "district": "Lasnamäe",
    "latitude": 59.452619760579,
    "name": "Läänemere tee 20b",
    "href": "/object/view/1874"
  },
  {
    "id": 1876,
    "longitude": 24.862651261071,
    "type": "children",
    "district": "Lasnamäe",
    "latitude": 59.451702976157,
    "name": "Kihnu tn 2a // Läänemere tee 1a",
    "href": "/object/view/1876"
  },
  {
    "id": 1878,
    "longitude": 24.885012857421,
    "type": "children",
    "district": "Lasnamäe",
    "latitude": 59.453181851277,
    "name": "Läänemere tee 41a",
    "href": "/object/view/1878"
  },
  {
    "id": 1879,
    "longitude": 24.88534490798,
    "type": "children",
    "district": "Lasnamäe",
    "latitude": 59.452064767224,
    "name": "Läänemere tee 62a",
    "href": "/object/view/1879"
  },
  {
    "id": 1882,
    "longitude": 24.871842020143,
    "type": "children",
    "district": "Lasnamäe",
    "latitude": 59.441185279801,
    "name": "Mahtra tn 12a",
    "href": "/object/view/1882"
  },
  {
    "id": 1883,
    "longitude": 24.872948943693,
    "type": "children",
    "district": "Lasnamäe",
    "latitude": 59.439643200525,
    "name": "Mahtra tn 26a",
    "href": "/object/view/1883"
  },
  {
    "id": 1886,
    "longitude": 24.875088735295,
    "type": "children",
    "district": "Lasnamäe",
    "latitude": 59.438686362061,
    "name": "Mahtra tn 42b",
    "href": "/object/view/1886"
  },
  {
    "id": 1887,
    "longitude": 24.878880798643,
    "type": "children",
    "district": "Lasnamäe",
    "latitude": 59.439618337803,
    "name": "Mahtra tn 52a",
    "href": "/object/view/1887"
  },
  {
    "id": 1890,
    "longitude": 24.879340247066,
    "type": "children",
    "district": "Lasnamäe",
    "latitude": 59.440925895176,
    "name": "Mahtra tn 68a",
    "href": "/object/view/1890"
  },
  {
    "id": 1892,
    "longitude": 24.794844167712,
    "type": "children",
    "district": "Lasnamäe",
    "latitude": 59.427865433037,
    "name": "Sikupilli tn 14a",
    "href": "/object/view/1892"
  },
  {
    "id": 1897,
    "longitude": 24.863784758652,
    "type": "children",
    "district": "Lasnamäe",
    "latitude": 59.447939577081,
    "name": "Linnamäe tee 2b",
    "href": "/object/view/1897"
  },
  {
    "id": 1902,
    "longitude": 24.816800974745,
    "type": "children",
    "district": "Lasnamäe",
    "latitude": 59.43477235286,
    "name": "Pae tn 58a",
    "href": "/object/view/1902"
  },
  {
    "id": 1905,
    "longitude": 24.819382362763,
    "type": "children",
    "district": "Lasnamäe",
    "latitude": 59.434854799491,
    "name": "Pae tn 58a",
    "href": "/object/view/1905"
  },
  {
    "id": 1909,
    "longitude": 24.821021842735,
    "type": "children",
    "district": "Lasnamäe",
    "latitude": 59.438190618517,
    "name": "Pae tn 59a",
    "href": "/object/view/1909"
  },
  {
    "id": 1912,
    "longitude": 24.826454073449,
    "type": "children",
    "district": "Lasnamäe",
    "latitude": 59.43680701709,
    "name": "Paekaare tn 38a",
    "href": "/object/view/1912"
  },
  {
    "id": 1914,
    "longitude": 24.824928720763,
    "type": "children",
    "district": "Lasnamäe",
    "latitude": 59.435698446467,
    "name": "Pae tn 68a // Paekaare tn 54a",
    "href": "/object/view/1914"
  },
  {
    "id": 1916,
    "longitude": 24.816089932632,
    "type": "children",
    "district": "Lasnamäe",
    "latitude": 59.436498313147,
    "name": "Pae tn 51b",
    "href": "/object/view/1916"
  },
  {
    "id": 1923,
    "longitude": 24.841905317957,
    "type": "children",
    "district": "Lasnamäe",
    "latitude": 59.437010405629,
    "name": "Pikri tn 3a",
    "href": "/object/view/1923"
  },
  {
    "id": 1929,
    "longitude": 24.832027430348,
    "type": "children",
    "district": "Lasnamäe",
    "latitude": 59.438177305196,
    "name": "Kalevipoja tänav plats 1",
    "href": "/object/view/1929"
  },
  {
    "id": 1930,
    "longitude": 24.813069088785,
    "type": "children",
    "district": "Lasnamäe",
    "latitude": 59.432541845644,
    "name": "Punane tn 5a",
    "href": "/object/view/1930"
  },
  {
    "id": 1935,
    "longitude": 24.825458175663,
    "type": "children",
    "district": "Lasnamäe",
    "latitude": 59.434071524922,
    "name": "Punane tn 35a",
    "href": "/object/view/1935"
  },
  {
    "id": 1936,
    "longitude": 24.845821936705,
    "type": "children",
    "district": "Lasnamäe",
    "latitude": 59.436821498184,
    "name": "Pikri tn 4a",
    "href": "/object/view/1936"
  },
  {
    "id": 1940,
    "longitude": 24.879604454333,
    "type": "children",
    "district": "Lasnamäe",
    "latitude": 59.442428948531,
    "name": "Raadiku tn 3a",
    "href": "/object/view/1940"
  },
  {
    "id": 1942,
    "longitude": 24.887981653412,
    "type": "children",
    "district": "Lasnamäe",
    "latitude": 59.443624212638,
    "name": "Raadiku tn 25",
    "href": "/object/view/1942"
  },
  {
    "id": 1945,
    "longitude": 24.899515883196,
    "type": "children",
    "district": "Lasnamäe",
    "latitude": 59.444152224489,
    "name": "Ümera tn 50b",
    "href": "/object/view/1945"
  },
  {
    "id": 1951,
    "longitude": 24.843525601824,
    "type": "children",
    "district": "Lasnamäe",
    "latitude": 59.438508253277,
    "name": "Vikerlase tn 20a",
    "href": "/object/view/1951"
  },
  {
    "id": 1954,
    "longitude": 24.845877311561,
    "type": "children",
    "district": "Lasnamäe",
    "latitude": 59.441415731609,
    "name": "Virbi tn 18a",
    "href": "/object/view/1954"
  },
  {
    "id": 1956,
    "longitude": 24.873268800743,
    "type": "children",
    "district": "Lasnamäe",
    "latitude": 59.454249804852,
    "name": "Vormsi tn 5 plats 1",
    "href": "/object/view/1956"
  },
  {
    "id": 1961,
    "longitude": 24.83291025864,
    "type": "children",
    "district": "Lasnamäe",
    "latitude": 59.44290847969,
    "name": "Võru tn 16a",
    "href": "/object/view/1961"
  },
  {
    "id": 1965,
    "longitude": 24.895921038642,
    "type": "children",
    "district": "Lasnamäe",
    "latitude": 59.444006370874,
    "name": "Ümera tn 21a",
    "href": "/object/view/1965"
  },
  {
    "id": 1969,
    "longitude": 24.898960035929,
    "type": "children",
    "district": "Lasnamäe",
    "latitude": 59.445844948697,
    "name": "Ümera tn 56a",
    "href": "/object/view/1969"
  },
  {
    "id": 1972,
    "longitude": 24.671132110766,
    "type": "children",
    "district": "Mustamäe",
    "latitude": 59.397693043825,
    "name": "Akadeemia tee 2a",
    "href": "/object/view/1972"
  },
  {
    "id": 1976,
    "longitude": 24.660821870314,
    "type": "children",
    "district": "Mustamäe",
    "latitude": 59.40080419434,
    "name": "Akadeemia tee 54a",
    "href": "/object/view/1976"
  },
  {
    "id": 1978,
    "longitude": 24.658688350436,
    "type": "children",
    "district": "Mustamäe",
    "latitude": 59.402739690309,
    "name": "Akadeemia tee 60b",
    "href": "/object/view/1978"
  },
  {
    "id": 1981,
    "longitude": 24.660435216435,
    "type": "children",
    "district": "Mustamäe",
    "latitude": 59.404010034967,
    "name": "E. Vilde tee 130a",
    "href": "/object/view/1981"
  },
  {
    "id": 1985,
    "longitude": 24.668081142507,
    "type": "children",
    "district": "Mustamäe",
    "latitude": 59.403161271653,
    "name": "Ehitajate tee 49a",
    "href": "/object/view/1985"
  },
  {
    "id": 1989,
    "longitude": 24.670409143485,
    "type": "children",
    "district": "Mustamäe",
    "latitude": 59.406897960367,
    "name": "Ehitajate tee 74a",
    "href": "/object/view/1989"
  },
  {
    "id": 2020,
    "longitude": 24.660692639812,
    "type": "children",
    "district": "Mustamäe",
    "latitude": 59.406142768622,
    "name": "Kadaka tee 155a",
    "href": "/object/view/2020"
  },
  {
    "id": 2024,
    "longitude": 24.658924078881,
    "type": "children",
    "district": "Mustamäe",
    "latitude": 59.404746399047,
    "name": "Akadeemia tee 68b // Kadaka tee 171a",
    "href": "/object/view/2024"
  },
  {
    "id": 2033,
    "longitude": 24.678034266439,
    "type": "children",
    "district": "Mustamäe",
    "latitude": 59.40337041269,
    "name": "Mustamäe tee 118a",
    "href": "/object/view/2033"
  },
  {
    "id": 2034,
    "longitude": 24.689235137913,
    "type": "children",
    "district": "Mustamäe",
    "latitude": 59.410347151834,
    "name": "Mustamäe tee 151a",
    "href": "/object/view/2034"
  },
  {
    "id": 2037,
    "longitude": 24.676099826827,
    "type": "children",
    "district": "Mustamäe",
    "latitude": 59.407605079165,
    "name": "A. H. Tammsaare tee 139a",
    "href": "/object/view/2037"
  },
  {
    "id": 2038,
    "longitude": 24.677357566132,
    "type": "children",
    "district": "Põhja-Tallinn",
    "latitude": 59.455602621811,
    "name": "Ankru tn 2b",
    "href": "/object/view/2038"
  },
  {
    "id": 2039,
    "longitude": 24.738101846233,
    "type": "children",
    "district": "Põhja-Tallinn",
    "latitude": 59.444956601756,
    "name": "Vana-Kalamaja tn 15",
    "href": "/object/view/2039"
  },
  {
    "id": 2040,
    "longitude": 24.711901676667,
    "type": "children",
    "district": "Põhja-Tallinn",
    "latitude": 59.445768512952,
    "name": "Rukki tn 8",
    "href": "/object/view/2040"
  },
  {
    "id": 2041,
    "longitude": 24.708605585216,
    "type": "children",
    "district": "Põhja-Tallinn",
    "latitude": 59.445045866687,
    "name": "Rukki tn 20a",
    "href": "/object/view/2041"
  },
  {
    "id": 2044,
    "longitude": 24.724081353555,
    "type": "children",
    "district": "Põhja-Tallinn",
    "latitude": 59.438131565328,
    "name": "Heina tn 1",
    "href": "/object/view/2044"
  },
  {
    "id": 2045,
    "longitude": 24.686143522024,
    "type": "children",
    "district": "Põhja-Tallinn",
    "latitude": 59.442871700854,
    "name": "Pelgurand (plats Pelgurana 59 vastas)",
    "href": "/object/view/2045"
  },
  {
    "id": 2046,
    "longitude": 24.685268329379,
    "type": "children",
    "district": "Põhja-Tallinn",
    "latitude": 59.441445552386,
    "name": "Pelgurand (plats rongiga)",
    "href": "/object/view/2046"
  },
  {
    "id": 2047,
    "longitude": 24.684316999615,
    "type": "children",
    "district": "Põhja-Tallinn",
    "latitude": 59.441159654138,
    "name": "Pelgurand (plats püstpalk piirdega)",
    "href": "/object/view/2047"
  },
  {
    "id": 2048,
    "longitude": 24.68514001886,
    "type": "children",
    "district": "Põhja-Tallinn",
    "latitude": 59.443530148154,
    "name": "Pelgurand (fitnesselemendid)",
    "href": "/object/view/2048"
  },
  {
    "id": 2049,
    "longitude": 24.683838511721,
    "type": "children",
    "district": "Põhja-Tallinn",
    "latitude": 59.440875442547,
    "name": "Pelgurand (plats võrkronilaga)",
    "href": "/object/view/2049"
  },
  {
    "id": 2050,
    "longitude": 24.684963186263,
    "type": "children",
    "district": "Põhja-Tallinn",
    "latitude": 59.440854229111,
    "name": "Pelgurand (plats linnupesakiigega)",
    "href": "/object/view/2050"
  },
  {
    "id": 2051,
    "longitude": 24.683511809411,
    "type": "children",
    "district": "Põhja-Tallinn",
    "latitude": 59.439887708616,
    "name": "Pelgurand (plats vana metallronilaga)",
    "href": "/object/view/2051"
  },
  {
    "id": 2052,
    "longitude": 24.710807352112,
    "type": "children",
    "district": "Põhja-Tallinn",
    "latitude": 59.452823635579,
    "name": "Karjamaa tn 5",
    "href": "/object/view/2052"
  },
  {
    "id": 2053,
    "longitude": 24.713765565603,
    "type": "children",
    "district": "Põhja-Tallinn",
    "latitude": 59.450207600803,
    "name": "Erika tn 5b",
    "href": "/object/view/2053"
  },
  {
    "id": 2054,
    "longitude": 24.703019170241,
    "type": "children",
    "district": "Põhja-Tallinn",
    "latitude": 59.441184846674,
    "name": "Kolde pst 76a",
    "href": "/object/view/2054"
  },
  {
    "id": 2056,
    "longitude": 24.69566995794,
    "type": "children",
    "district": "Põhja-Tallinn",
    "latitude": 59.444674575309,
    "name": "Vihuri tn 5a",
    "href": "/object/view/2056"
  },
  {
    "id": 2057,
    "longitude": 24.688504570943,
    "type": "children",
    "district": "Põhja-Tallinn",
    "latitude": 59.449003357019,
    "name": "Randla tn 16a",
    "href": "/object/view/2057"
  },
  {
    "id": 2058,
    "longitude": 24.686096963964,
    "type": "children",
    "district": "Põhja-Tallinn",
    "latitude": 59.452908893349,
    "name": "Kopli tn 69c // Kopli kalmistupark",
    "href": "/object/view/2058"
  },
  {
    "id": 2059,
    "longitude": 24.698587003908,
    "type": "children",
    "district": "Põhja-Tallinn",
    "latitude": 59.459296713236,
    "name": "Laevastiku tn 1c",
    "href": "/object/view/2059"
  },
  {
    "id": 2060,
    "longitude": 24.703579233811,
    "type": "children",
    "district": "Mustamäe",
    "latitude": 59.400762510266,
    "name": "Retke tee 6a ",
    "href": "/object/view/2060"
  },
  {
    "id": 2061,
    "longitude": 24.705024925959,
    "type": "children",
    "district": "Mustamäe",
    "latitude": 59.399251414111,
    "name": "Retke tee 30b",
    "href": "/object/view/2061"
  },
  {
    "id": 2062,
    "longitude": 24.704891756751,
    "type": "children",
    "district": "Mustamäe",
    "latitude": 59.402185012971,
    "name": "Retke tee 6a",
    "href": "/object/view/2062"
  },
  {
    "id": 2063,
    "longitude": 24.693134482156,
    "type": "children",
    "district": "Mustamäe",
    "latitude": 59.397245981252,
    "name": "J. Sütiste tee 22a",
    "href": "/object/view/2063"
  },
  {
    "id": 2064,
    "longitude": 24.688590851514,
    "type": "children",
    "district": "Mustamäe",
    "latitude": 59.398395815526,
    "name": "Sõpruse pst 233a",
    "href": "/object/view/2064"
  },
  {
    "id": 2065,
    "longitude": 24.718641936595,
    "type": "children",
    "district": "Põhja-Tallinn",
    "latitude": 59.437322095889,
    "name": "Ristiku tn 16",
    "href": "/object/view/2065"
  },
  {
    "id": 2066,
    "longitude": 24.690191948409,
    "type": "children",
    "district": "Põhja-Tallinn",
    "latitude": 59.450695898175,
    "name": "Lõime tn 19a",
    "href": "/object/view/2066"
  },
  {
    "id": 2067,
    "longitude": 24.689028168468,
    "type": "children",
    "district": "Põhja-Tallinn",
    "latitude": 59.45115246378,
    "name": "Lõime tn 20a",
    "href": "/object/view/2067"
  },
  {
    "id": 2068,
    "longitude": 24.703240020961,
    "type": "children",
    "district": "Põhja-Tallinn",
    "latitude": 59.442320787593,
    "name": "Sõle tn 41a",
    "href": "/object/view/2068"
  },
  {
    "id": 2069,
    "longitude": 24.693562493579,
    "type": "children",
    "district": "Põhja-Tallinn",
    "latitude": 59.449499394246,
    "name": "Ketraja tn 3a",
    "href": "/object/view/2069"
  },
  {
    "id": 2072,
    "longitude": 24.854066623418,
    "type": "children",
    "district": "Pirita",
    "latitude": 59.456521407705,
    "name": "Tammetõru tn 2",
    "href": "/object/view/2072"
  },
  {
    "id": 2073,
    "longitude": 24.839144280476,
    "type": "children",
    "district": "Pirita",
    "latitude": 59.494393187407,
    "name": "Väina tee 29a",
    "href": "/object/view/2073"
  },
  {
    "id": 2074,
    "longitude": 24.869624867984,
    "type": "children",
    "district": "Pirita",
    "latitude": 59.491099795183,
    "name": "Aianduse tee 70a ",
    "href": "/object/view/2074"
  },
  {
    "id": 2076,
    "longitude": 24.831531054311,
    "type": "children",
    "district": "Pirita",
    "latitude": 59.457527662077,
    "name": "Lehise tn 4a ",
    "href": "/object/view/2076"
  },
  {
    "id": 2078,
    "longitude": 24.832715032464,
    "type": "children",
    "district": "Pirita",
    "latitude": 59.467724109517,
    "name": "Pirita rannaala",
    "href": "/object/view/2078"
  },
  {
    "id": 2079,
    "longitude": 24.724909539446,
    "type": "children",
    "district": "Nõmme",
    "latitude": 59.392521333953,
    "name": "Pärnu mnt 145",
    "href": "/object/view/2079"
  },
  {
    "id": 2080,
    "longitude": 24.623760582014,
    "type": "children",
    "district": "Nõmme",
    "latitude": 59.368480573466,
    "name": "Rohula tn 30a",
    "href": "/object/view/2080"
  },
  {
    "id": 2081,
    "longitude": 24.633538133173,
    "type": "children",
    "district": "Nõmme",
    "latitude": 59.361100809087,
    "name": "Tirdi tn 12",
    "href": "/object/view/2081"
  },
  {
    "id": 2082,
    "longitude": 24.719524857469,
    "type": "children",
    "district": "Nõmme",
    "latitude": 59.376912094169,
    "name": "Mahla tn 56",
    "href": "/object/view/2082"
  },
  {
    "id": 2083,
    "longitude": 24.692356797696,
    "type": "children",
    "district": "Nõmme",
    "latitude": 59.371996805888,
    "name": "Pääsküla raba",
    "href": "/object/view/2083"
  },
  {
    "id": 2085,
    "longitude": 24.612171204524,
    "type": "children",
    "district": "Nõmme",
    "latitude": 59.358260914938,
    "name": "Soovildiku tn 16",
    "href": "/object/view/2085"
  },
  {
    "id": 2086,
    "longitude": 24.635637011526,
    "type": "children",
    "district": "Nõmme",
    "latitude": 59.382039848753,
    "name": "Tammepärja tn 2a",
    "href": "/object/view/2086"
  },
  {
    "id": 2087,
    "longitude": 24.63648142295,
    "type": "children",
    "district": "Nõmme",
    "latitude": 59.366664867443,
    "name": "Liipri tn 8",
    "href": "/object/view/2087"
  },
  {
    "id": 2089,
    "longitude": 24.660684676428,
    "type": "children",
    "district": "Nõmme",
    "latitude": 59.384989049139,
    "name": "Harku tn 62",
    "href": "/object/view/2089"
  },
  {
    "id": 2090,
    "longitude": 24.667199119791,
    "type": "children",
    "district": "Nõmme",
    "latitude": 59.367370508654,
    "name": "Ilmarise tn 51",
    "href": "/object/view/2090"
  },
  {
    "id": 2091,
    "longitude": 24.705468653108,
    "type": "children",
    "district": "Nõmme",
    "latitude": 59.379882269654,
    "name": "Lootuse puiestik",
    "href": "/object/view/2091"
  },
  {
    "id": 2092,
    "longitude": 24.715964967683,
    "type": "children",
    "district": "Nõmme",
    "latitude": 59.375084401265,
    "name": "Männiku tee 92b",
    "href": "/object/view/2092"
  },
  {
    "id": 2093,
    "longitude": 24.744675358179,
    "type": "children",
    "district": "Nõmme",
    "latitude": 59.376146728908,
    "name": "Piibri tn 2 // Valdeku tn 166",
    "href": "/object/view/2093"
  },
  {
    "id": 2094,
    "longitude": 24.626780436009,
    "type": "children",
    "district": "Nõmme",
    "latitude": 59.353948328782,
    "name": "Tammede pst 2a",
    "href": "/object/view/2094"
  },
  {
    "id": 2095,
    "longitude": 24.658237980119,
    "type": "children",
    "district": "Nõmme",
    "latitude": 59.387645092339,
    "name": "Torni tn 4a",
    "href": "/object/view/2095"
  },
  {
    "id": 2096,
    "longitude": 24.693103049921,
    "type": "children",
    "district": "Nõmme",
    "latitude": 59.390414509398,
    "name": "Piiri tn 8a",
    "href": "/object/view/2096"
  },
  {
    "id": 2097,
    "longitude": 24.642247453829,
    "type": "children",
    "district": "Nõmme",
    "latitude": 59.369197649774,
    "name": "Ränduri tn 4",
    "href": "/object/view/2097"
  },
  {
    "id": 2098,
    "longitude": 24.71077394072,
    "type": "children",
    "district": "Nõmme",
    "latitude": 59.375048241505,
    "name": "Võidu tn 60",
    "href": "/object/view/2098"
  },
  {
    "id": 2099,
    "longitude": 24.711343871489,
    "type": "children",
    "district": "Nõmme",
    "latitude": 59.381200740888,
    "name": "Võidu puiestik",
    "href": "/object/view/2099"
  },
  {
    "id": 2100,
    "longitude": 24.698867411981,
    "type": "children",
    "district": "Nõmme",
    "latitude": 59.38267900906,
    "name": "Õie tn 40 ",
    "href": "/object/view/2100"
  },
  {
    "id": 2101,
    "longitude": 24.656551086116,
    "type": "children",
    "district": "Nõmme",
    "latitude": 59.373632472253,
    "name": "J.V. Jannseni tn 24",
    "href": "/object/view/2101"
  },
  {
    "id": 2102,
    "longitude": 24.631130623524,
    "type": "children",
    "district": "Nõmme",
    "latitude": 59.37356129966,
    "name": "Päikese puiestee T3",
    "href": "/object/view/2102"
  },
  {
    "id": 2103,
    "longitude": 24.642639528971,
    "type": "children",
    "district": "Nõmme",
    "latitude": 59.379955853991,
    "name": "Hommiku tn 4e",
    "href": "/object/view/2103"
  },
  {
    "id": 2104,
    "longitude": 24.682557750963,
    "type": "children",
    "district": "Nõmme",
    "latitude": 59.379638299777,
    "name": "Sihi tn 98",
    "href": "/object/view/2104"
  },
  {
    "id": 2105,
    "longitude": 24.71353998067,
    "type": "children",
    "district": "Nõmme",
    "latitude": 59.391595606506,
    "name": "Tallinna tn 22",
    "href": "/object/view/2105"
  },
  {
    "id": 2106,
    "longitude": 24.707580724575,
    "type": "children",
    "district": "Nõmme",
    "latitude": 59.387614681597,
    "name": "Näituse tn 8",
    "href": "/object/view/2106"
  },
  {
    "id": 2107,
    "longitude": 24.639397520151,
    "type": "children",
    "district": "Nõmme",
    "latitude": 59.38607519148,
    "name": "Tihniku tn 1",
    "href": "/object/view/2107"
  },
  {
    "id": 2108,
    "longitude": 24.681803640465,
    "type": "children",
    "district": "Nõmme",
    "latitude": 59.388929530187,
    "name": "Üliõpilaste tee 3 (Turu plats 5 kõrval)",
    "href": "/object/view/2108"
  },
  {
    "id": 2109,
    "longitude": 24.678278102924,
    "type": "children",
    "district": "Nõmme",
    "latitude": 59.376843248404,
    "name": "Vabaduse pst 96 ",
    "href": "/object/view/2109"
  },
  {
    "id": 2110,
    "longitude": 24.699305874196,
    "type": "children",
    "district": "Nõmme",
    "latitude": 59.374223192979,
    "name": "Valdeku park",
    "href": "/object/view/2110"
  },
  {
    "id": 2114,
    "longitude": 24.680476623294,
    "type": "children",
    "district": "Mustamäe",
    "latitude": 59.396651384468,
    "name": "J. Sütiste tee 33a",
    "href": "/object/view/2114"
  },
  {
    "id": 2129,
    "longitude": 24.698263730512,
    "type": "children",
    "district": "Mustamäe",
    "latitude": 59.39963255077,
    "name": "J. Sütiste tee 7b",
    "href": "/object/view/2129"
  },
  {
    "id": 2133,
    "longitude": 24.704772098747,
    "type": "children",
    "district": "Mustamäe",
    "latitude": 59.405568489554,
    "name": "A. H. Tammsaare tee 68 // Sõpruse pst 177",
    "href": "/object/view/2133"
  },
  {
    "id": 2134,
    "longitude": 24.701306051457,
    "type": "children",
    "district": "Mustamäe",
    "latitude": 59.407489239917,
    "name": "Sõpruse pst 194a",
    "href": "/object/view/2134"
  },
  {
    "id": 2139,
    "longitude": 24.690847265842,
    "type": "children",
    "district": "Mustamäe",
    "latitude": 59.399016222902,
    "name": "J. Sütiste tee 4a",
    "href": "/object/view/2139"
  },
  {
    "id": 2143,
    "longitude": 24.696549663613,
    "type": "children",
    "district": "Mustamäe",
    "latitude": 59.403878082111,
    "name": "Sõpruse pst 208a",
    "href": "/object/view/2143"
  },
  {
    "id": 2158,
    "longitude": 24.693312914819,
    "type": "children",
    "district": "Mustamäe",
    "latitude": 59.406542692543,
    "name": "A. H. Tammsaare tee 79b",
    "href": "/object/view/2158"
  },
  {
    "id": 2168,
    "longitude": 24.682608807829,
    "type": "children",
    "district": "Mustamäe",
    "latitude": 59.403487842243,
    "name": "E. Vilde tee 79a // Mustamäe tee 181a",
    "href": "/object/view/2168"
  },
  {
    "id": 2172,
    "longitude": 24.691458478396,
    "type": "children",
    "district": "Mustamäe",
    "latitude": 59.412714699415,
    "name": "Mustamäe tee 137b",
    "href": "/object/view/2172"
  },
  {
    "id": 2177,
    "longitude": 24.684555942502,
    "type": "children",
    "district": "Mustamäe",
    "latitude": 59.406202749729,
    "name": "Mustamäe tee 169a",
    "href": "/object/view/2177"
  },
  {
    "id": 2182,
    "longitude": 24.680444212008,
    "type": "children",
    "district": "Mustamäe",
    "latitude": 59.401209345492,
    "name": "Mustamäe tee 199a",
    "href": "/object/view/2182"
  },
  {
    "id": 2185,
    "longitude": 24.676551065766,
    "type": "children",
    "district": "Mustamäe",
    "latitude": 59.400282531906,
    "name": "Keskuse tn 1 // Sõpruse pst 252 plats 1",
    "href": "/object/view/2185"
  },
  {
    "id": 2186,
    "longitude": 24.700576641685,
    "type": "children",
    "district": "Mustamäe",
    "latitude": 59.400361532951,
    "name": "J. Sütiste tee 7b",
    "href": "/object/view/2186"
  },
  {
    "id": 2189,
    "longitude": 24.696499748188,
    "type": "children",
    "district": "Kristiine",
    "latitude": 59.417367875442,
    "name": "Mustamäe tee 59a plats 1",
    "href": "/object/view/2189"
  },
  {
    "id": 2190,
    "longitude": 24.649649178364,
    "type": "children",
    "district": "Haabersti",
    "latitude": 59.416915149079,
    "name": "Õismäe tee 22a plats 2",
    "href": "/object/view/2190"
  },
  {
    "id": 2191,
    "longitude": 24.683594723232,
    "type": "children",
    "district": "Põhja-Tallinn",
    "latitude": 59.440376059358,
    "name": "Pelgurand (plats laevaga)",
    "href": "/object/view/2191"
  },
  {
    "id": 2192,
    "longitude": 24.837447240402,
    "type": "children",
    "district": "Pirita",
    "latitude": 59.457134920542,
    "name": "Pähkli tn 2",
    "href": "/object/view/2192"
  },
  {
    "id": 2193,
    "longitude": 24.852338625857,
    "type": "children",
    "district": "Pirita",
    "latitude": 59.491951752698,
    "name": "Kesktee 65",
    "href": "/object/view/2193"
  },
  {
    "id": 2194,
    "longitude": 24.874764556234,
    "type": "children",
    "district": "Pirita",
    "latitude": 59.459462065395,
    "name": "Rahvakooli tee 3",
    "href": "/object/view/2194"
  },
  {
    "id": 2195,
    "longitude": 24.852439055008,
    "type": "children",
    "district": "Pirita",
    "latitude": 59.458997742823,
    "name": "Lükati tee 2",
    "href": "/object/view/2195"
  },
  {
    "id": 2196,
    "longitude": 24.717301389688,
    "type": "children",
    "district": "Kristiine",
    "latitude": 59.427170186285,
    "name": "Endla tn 49b",
    "href": "/object/view/2196"
  },
  {
    "id": 2197,
    "longitude": 24.723923680182,
    "type": "children",
    "district": "Kristiine",
    "latitude": 59.41683953022,
    "name": "Tedre tn 29a",
    "href": "/object/view/2197"
  },
  {
    "id": 2198,
    "longitude": 24.730928477477,
    "type": "children",
    "district": "Kristiine",
    "latitude": 59.416121542575,
    "name": "Kotka tn 14a // Tedre tn 2b",
    "href": "/object/view/2198"
  },
  {
    "id": 2199,
    "longitude": 24.723023628183,
    "type": "children",
    "district": "Kristiine",
    "latitude": 59.403037559171,
    "name": "Seebi tn 36b",
    "href": "/object/view/2199"
  },
  {
    "id": 2200,
    "longitude": 24.826521944653,
    "type": "children",
    "district": "Lasnamäe",
    "latitude": 59.44265287184,
    "name": "Liikuri tn 58 plats 1 ",
    "href": "/object/view/2200"
  },
  {
    "id": 2201,
    "longitude": 24.73239516554,
    "type": "children",
    "district": "Põhja-Tallinn",
    "latitude": 59.449405538104,
    "name": "Kungla tn 63 (Kalamaja kalmistupark)",
    "href": "/object/view/2201"
  },
  {
    "id": 2202,
    "longitude": 24.641420672519,
    "type": "children",
    "district": "Haabersti",
    "latitude": 59.40361305201,
    "name": "Astangu tn 74",
    "href": "/object/view/2202"
  },
  {
    "id": 2203,
    "longitude": 24.764619968192,
    "type": "children",
    "district": "Kesklinn",
    "latitude": 59.43184138247,
    "name": "Lastekodu tn 3a // Tartu mnt 28b",
    "href": "/object/view/2203"
  },
  {
    "id": 2204,
    "longitude": 24.765788011778,
    "type": "children",
    "district": "Kesklinn",
    "latitude": 59.436994612615,
    "name": "Narva mnt 14a",
    "href": "/object/view/2204"
  },
  {
    "id": 2205,
    "longitude": 24.693894879911,
    "type": "children",
    "district": "Põhja-Tallinn",
    "latitude": 59.443566907669,
    "name": "Puhangu tn 53a",
    "href": "/object/view/2205"
  },
  {
    "id": 2206,
    "longitude": 24.759936258695,
    "type": "children",
    "district": "Kesklinn",
    "latitude": 59.427372183834,
    "name": "Juhkentali tn 10",
    "href": "/object/view/2206"
  },
  {
    "id": 2207,
    "longitude": 24.761747973016,
    "type": "children",
    "district": "Kesklinn",
    "latitude": 59.43673395973,
    "name": "aneeži tn 5a // V. Reimani tn 2a",
    "href": "/object/view/2207"
  },
  {
    "id": 2208,
    "longitude": 24.710885148613,
    "type": "children",
    "district": "Kristiine",
    "latitude": 59.39555577884,
    "name": "Energia tn 2b",
    "href": "/object/view/2208"
  },
  {
    "id": 2209,
    "longitude": 24.703652594328,
    "type": "children",
    "district": "Kristiine",
    "latitude": 59.424146464808,
    "name": "Sõstra tn 1a",
    "href": "/object/view/2209"
  },
  {
    "id": 2210,
    "longitude": 24.694146980197,
    "type": "children",
    "district": "Mustamäe",
    "latitude": 59.40432857479,
    "name": "E. Vilde tee 54",
    "href": "/object/view/2210"
  },
  {
    "id": 2212,
    "longitude": 24.653859526105,
    "type": "children",
    "district": "Nõmme",
    "latitude": 59.389616167675,
    "name": "Külmallika tn 15a",
    "href": "/object/view/2212"
  },
  {
    "id": 2213,
    "longitude": 24.665105339984,
    "type": "children",
    "district": "Nõmme",
    "latitude": 59.389422691442,
    "name": "Üliõpilaste tee 3",
    "href": "/object/view/2213"
  },
  {
    "id": 2214,
    "longitude": 24.687415904736,
    "type": "children",
    "district": "Nõmme",
    "latitude": 59.385680842893,
    "name": "Mai tn 1",
    "href": "/object/view/2214"
  },
  {
    "id": 2215,
    "longitude": 24.717347279857,
    "type": "children",
    "district": "Nõmme",
    "latitude": 59.388100646795,
    "name": "Vabaduse pst 4",
    "href": "/object/view/2215"
  },
  {
    "id": 2216,
    "longitude": 24.674757474544,
    "type": "children",
    "district": "Põhja-Tallinn",
    "latitude": 59.454164802389,
    "name": "Ankru tn 14",
    "href": "/object/view/2216"
  },
  {
    "id": 2217,
    "longitude": 24.693249596249,
    "type": "children",
    "district": "Põhja-Tallinn",
    "latitude": 59.444721269978,
    "name": "Randla tn 23a/Vihuri tn 8a",
    "href": "/object/view/2217"
  },
  {
    "id": 2218,
    "longitude": 24.724194922185,
    "type": "children",
    "district": "Põhja-Tallinn",
    "latitude": 59.473191676902,
    "name": "Pikakari supelrand",
    "href": "/object/view/2218"
  },
  {
    "id": 2219,
    "longitude": 24.791125606002,
    "type": "children",
    "district": "Lasnamäe",
    "latitude": 59.431863145279,
    "name": "Asunduse tn 7h",
    "href": "/object/view/2219"
  },
  {
    "id": 2222,
    "longitude": 24.575454398276,
    "type": "children",
    "district": "Haabersti",
    "latitude": 59.44880056895,
    "name": "Räime tn 52 plats 1",
    "href": "/object/view/2222"
  },
  {
    "id": 2223,
    "longitude": 24.779445442189,
    "type": "children",
    "district": "Kesklinn",
    "latitude": 59.435697251784,
    "name": "J.Poska tn 15 ",
    "href": "/object/view/2223"
  },
  {
    "id": 2226,
    "longitude": 24.724633732541,
    "type": "children",
    "district": "Kristiine",
    "latitude": 59.424012592264,
    "name": "Tulika tn 64b",
    "href": "/object/view/2226"
  },
  {
    "id": 2228,
    "longitude": 24.708716083853,
    "type": "children",
    "district": "Põhja-Tallinn",
    "latitude": 59.452859371308,
    "name": "Karjamaa tn 3 plats 1",
    "href": "/object/view/2228"
  },
  {
    "id": 2229,
    "longitude": 24.890488432541,
    "type": "children",
    "district": "Lasnamäe",
    "latitude": 59.441722314933,
    "name": "Ümera tn 22a",
    "href": "/object/view/2229"
  },
  {
    "id": 2231,
    "longitude": 24.806107368323,
    "type": "children",
    "district": "Lasnamäe",
    "latitude": 59.43317297571,
    "name": "Paepargi tn 9 // Pallasti tn 56 plats 1",
    "href": "/object/view/2231"
  },
  {
    "id": 2232,
    "longitude": 24.678132980118,
    "type": "children",
    "district": "Mustamäe",
    "latitude": 59.399139723508,
    "name": "Keskuse tn 1 // Sõpruse pst 252 plats 5",
    "href": "/object/view/2232"
  },
  {
    "id": 2233,
    "longitude": 24.677156656036,
    "type": "children",
    "district": "Mustamäe",
    "latitude": 59.399893410482,
    "name": "Keskuse tn 1 // Sõpruse pst 252 plats 3 ",
    "href": "/object/view/2233"
  },
  {
    "id": 2234,
    "longitude": 24.677607267151,
    "type": "children",
    "district": "Mustamäe",
    "latitude": 59.399568453299,
    "name": "Keskuse tn 1 // Sõpruse pst 252 plats 4",
    "href": "/object/view/2234"
  },
  {
    "id": 2235,
    "longitude": 24.674356429825,
    "type": "children",
    "district": "Mustamäe",
    "latitude": 59.399407338918,
    "name": "Keskuse tn 1 // Sõpruse pst 252 plats 6",
    "href": "/object/view/2235"
  },
  {
    "id": 2236,
    "longitude": 24.699425092868,
    "type": "children",
    "district": "Mustamäe",
    "latitude": 59.406722697932,
    "name": "Sipelga tn 6a",
    "href": "/object/view/2236"
  },
  {
    "id": 2237,
    "longitude": 24.622343001852,
    "type": "children",
    "district": "Haabersti",
    "latitude": 59.432708179199,
    "name": "Tanuma tn 91b",
    "href": "/object/view/2237"
  },
  {
    "id": 2238,
    "longitude": 24.746076488916,
    "type": "children",
    "district": "Kesklinn",
    "latitude": 59.442846310853,
    "name": "Rannamäe tee 11",
    "href": "/object/view/2238"
  },
  {
    "id": 2239,
    "longitude": 24.823267228305,
    "type": "children",
    "district": "Pirita",
    "latitude": 59.453809578447,
    "name": "Tamme tn 31",
    "href": "/object/view/2239"
  },
  {
    "id": 2240,
    "longitude": 24.602287184656,
    "type": "children",
    "district": "Haabersti",
    "latitude": 59.442642737927,
    "name": "Mirta tn 16",
    "href": "/object/view/2240"
  },
  {
    "id": 2241,
    "longitude": 24.605305988361,
    "type": "children",
    "district": "Haabersti",
    "latitude": 59.442282846098,
    "name": "Mirta tn 35a",
    "href": "/object/view/2241"
  },
  {
    "id": 2242,
    "longitude": 24.739206797778,
    "type": "children",
    "district": "Kesklinn",
    "latitude": 59.429137809424,
    "name": "Suur-Ameerika tn 14a",
    "href": "/object/view/2242"
  },
  {
    "id": 2244,
    "longitude": 24.631683105557,
    "type": "children",
    "district": "Nõmme",
    "latitude": 59.362735149651,
    "name": "Vabaduse pst 205",
    "href": "/object/view/2244"
  },
  {
    "id": 2246,
    "longitude": 24.64976033373,
    "type": "children",
    "district": "Haabersti",
    "latitude": 59.417151142749,
    "name": "Õismäe tee 22a plats 1",
    "href": "/object/view/2246"
  },
  {
    "id": 2249,
    "longitude": 24.697014458089,
    "type": "children",
    "district": "Kristiine",
    "latitude": 59.41755883699,
    "name": "Mustamäe tee 59a plats 2",
    "href": "/object/view/2249"
  },
  {
    "id": 2250,
    "longitude": 24.697448975949,
    "type": "children",
    "district": "Kristiine",
    "latitude": 59.417520626828,
    "name": "Mustamäe tee 59a plats 3",
    "href": "/object/view/2250"
  },
  {
    "id": 2251,
    "longitude": 24.778692772491,
    "type": "children",
    "district": "Kesklinn",
    "latitude": 59.430742532989,
    "name": "J. Vilmsi tn 52c",
    "href": "/object/view/2251"
  },
  {
    "id": 2252,
    "longitude": 24.740820144181,
    "type": "children",
    "district": "Kesklinn",
    "latitude": 59.425253296474,
    "name": "Kesk-Luha tänav // Kristiina tänav // Toom-Kuninga tänav T2 // Uue Maailma tänav // Virmalise tänav T1 // Väike-Ameerika tänav T1",
    "href": "/object/view/2252"
  },
  {
    "id": 2253,
    "longitude": 24.709654616672,
    "type": "children",
    "district": "Kristiine",
    "latitude": 59.403851758692,
    "name": "Nõmme tee 107 plats 2",
    "href": "/object/view/2253"
  },
  {
    "id": 2254,
    "longitude": 24.710030125934,
    "type": "children",
    "district": "Kristiine",
    "latitude": 59.40331659596,
    "name": "Nõmme tee 107 plats 3",
    "href": "/object/view/2254"
  },
  {
    "id": 2255,
    "longitude": 24.70983025159,
    "type": "children",
    "district": "Põhja-Tallinn",
    "latitude": 59.452859093247,
    "name": "Karjamaa tn 3 plats 2",
    "href": "/object/view/2255"
  },
  {
    "id": 2256,
    "longitude": 24.867001295245,
    "type": "children",
    "district": "Lasnamäe",
    "latitude": 59.446358626616,
    "name": "Muhu tn 8b (Kivila peremänguväljak plats 2)",
    "href": "/object/view/2256"
  },
  {
    "id": 2258,
    "longitude": 24.867902517474,
    "type": "children",
    "district": "Lasnamäe",
    "latitude": 59.44645679754,
    "name": "Muhu tn 8b (Kivila peremänguväljak plats 3)",
    "href": "/object/view/2258"
  },
  {
    "id": 2259,
    "longitude": 24.826792259524,
    "type": "children",
    "district": "Lasnamäe",
    "latitude": 59.442503645163,
    "name": "Liikuri tn 58 plats 2",
    "href": "/object/view/2259"
  },
  {
    "id": 2260,
    "longitude": 24.826416750262,
    "type": "children",
    "district": "Lasnamäe",
    "latitude": 59.44238637171,
    "name": "Liikuri tn 58 plats 3",
    "href": "/object/view/2260"
  },
  {
    "id": 2261,
    "longitude": 24.832527275671,
    "type": "children",
    "district": "Lasnamäe",
    "latitude": 59.438254783254,
    "name": "Kalevipoja tänav plats 2",
    "href": "/object/view/2261"
  },
  {
    "id": 2263,
    "longitude": 24.805779677524,
    "type": "children",
    "district": "Lasnamäe",
    "latitude": 59.433198059518,
    "name": "Paepargi tn 9 // Pallasti tn 56 plats 2",
    "href": "/object/view/2263"
  },
  {
    "id": 2264,
    "longitude": 24.873942035413,
    "type": "children",
    "district": "Lasnamäe",
    "latitude": 59.454162357077,
    "name": "Vormsi tn 5 plats 2",
    "href": "/object/view/2264"
  },
  {
    "id": 2265,
    "longitude": 24.87462868092,
    "type": "children",
    "district": "Lasnamäe",
    "latitude": 59.453769761137,
    "name": "Vormsi tn 5 plats 3",
    "href": "/object/view/2265"
  },
  {
    "id": 2266,
    "longitude": 24.575814658692,
    "type": "children",
    "district": "Haabersti",
    "latitude": 59.44913877771,
    "name": "Räime tn 52 plats 2",
    "href": "/object/view/2266"
  },
  {
    "id": 2267,
    "longitude": 24.677266945508,
    "type": "children",
    "district": "Mustamäe",
    "latitude": 59.40027147086,
    "name": "Keskuse tn 1 // Sõpruse pst 252 plats 2",
    "href": "/object/view/2267"
  },
  {
    "id": 2270,
    "longitude": 24.84917110105,
    "type": "children",
    "district": "Lasnamäe",
    "latitude": 59.449256277095,
    "name": "Paasiku 3 plats 2",
    "href": "/object/view/2270"
  },
  {
    "id": 2271,
    "longitude": 24.849857746558,
    "type": "children",
    "district": "Lasnamäe",
    "latitude": 59.449365346537,
    "name": "Paasiku 3 plats 3",
    "href": "/object/view/2271"
  },
  {
    "id": 2272,
    "longitude": 24.608552586647,
    "type": "children",
    "district": "Haabersti",
    "latitude": 59.441715798888,
    "name": "Mirta tn 43",
    "href": "/object/view/2272"
  },
  {
    "id": 2273,
    "longitude": 24.614163269906,
    "type": "children",
    "district": "Nõmme",
    "latitude": 59.36106096557,
    "name": "Laaniku tn 1b",
    "href": "/object/view/2273"
  },
  {
    "id": 2277,
    "longitude": 24.881275806885,
    "type": "children",
    "district": "Lasnamäe",
    "latitude": 59.448443488669,
    "name": "Linnamäe tee 28a plats treeningelementidega",
    "href": "/object/view/2277"
  },
  {
    "id": 2278,
    "longitude": 24.882509623032,
    "type": "children",
    "district": "Lasnamäe",
    "latitude": 59.44712368882,
    "name": "Linnamäe tee 28a plats 1-4 aastastele",
    "href": "/object/view/2278"
  },
  {
    "id": 2279,
    "longitude": 24.882906589966,
    "type": "children",
    "district": "Lasnamäe",
    "latitude": 59.448056280003,
    "name": "Linnamäe tee 28a plats 4-12 aastastele",
    "href": "/object/view/2279"
  },
  {
    "id": 2280,
    "longitude": 24.880492601852,
    "type": "children",
    "district": "Lasnamäe",
    "latitude": 59.447985382161,
    "name": "Linnamäe tee 28a plats 12-16 aastastele",
    "href": "/object/view/2280"
  },
  {
    "id": 2283,
    "longitude": 24.852591467459,
    "type": "children",
    "district": "Pirita",
    "latitude": 59.481866148222,
    "name": "Võsa tee 26",
    "href": "/object/view/2283"
  },
  {
    "id": 2284,
    "longitude": 24.701771760574,
    "type": "children",
    "district": "Mustamäe",
    "latitude": 59.408392383264,
    "name": "Sõpruse pst 194a",
    "href": "/object/view/2284"
  },
  {
    "id": 2285,
    "longitude": 24.89235667368,
    "type": "children",
    "district": "Lasnamäe",
    "latitude": 59.448455495013,
    "name": "K. Kärberi tn 39a ",
    "href": "/object/view/2285"
  },
  {
    "id": 2286,
    "longitude": 24.831662551126,
    "type": "children",
    "district": "Pirita",
    "latitude": 59.459611994689,
    "name": "Pirita tee 110 plats 1",
    "href": "/object/view/2286"
  },
  {
    "id": 2287,
    "longitude": 24.831544533929,
    "type": "children",
    "district": "Pirita",
    "latitude": 59.459347580828,
    "name": "Pirita tee 110 plats 2",
    "href": "/object/view/2287"
  },
  {
    "id": 2288,
    "longitude": 24.831496254167,
    "type": "children",
    "district": "Pirita",
    "latitude": 59.459971812291,
    "name": "Pirita tee 110 plats 3",
    "href": "/object/view/2288"
  },
  {
    "id": 2289,
    "longitude": 24.832204357347,
    "type": "children",
    "district": "Pirita",
    "latitude": 59.459077713003,
    "name": "Pirita tee 110 plats 4",
    "href": "/object/view/2289"
  },
  {
    "id": 2290,
    "longitude": 24.638862511639,
    "type": "children",
    "district": "Haabersti",
    "latitude": 59.417424577043,
    "name": "Õismäe tee õueala 7",
    "href": "/object/view/2290"
  },
  {
    "id": 2291,
    "longitude": 0,
    "type": "children",
    "district": "Kristiine",
    "latitude": 0,
    "name": "Järve tänav T2",
    "href": "/object/view/2291"
  },
  {
    "id": 2292,
    "longitude": 24.886156941664,
    "type": "children",
    "district": "Lasnamäe",
    "latitude": 59.44330325285,
    "name": "Raadiku tn 19a",
    "href": "/object/view/2292"
  },
  {
    "id": 2293,
    "longitude": 24.686451930688,
    "type": "children",
    "district": "Mustamäe",
    "latitude": 59.400457254614,
    "name": "Sõpruse pst 234a",
    "href": "/object/view/2293"
  },
  {
    "id": 2294,
    "longitude": 0,
    "type": "children",
    "district": "Haabersti",
    "latitude": 0,
    "name": "Rocca al Mare rannapromenaad 2",
    "href": "/object/view/2294"
  }
]
