"","id","longitude","type","district","latitude","name","href"
"1",1682,24.654622939587,"children","Haabersti",59.412571908166,"Õismäe tee õueala 1","/object/view/1682"
"2",1683,24.652008700069,"children","Haabersti",59.411249089328,"Õismäe tee 21a","/object/view/1683"
"3",1684,24.649609022229,"children","Haabersti",59.41224383765,"Õismäe tee 32a","/object/view/1684"
"4",1685,24.647958618468,"children","Haabersti",59.409608857724,"Õismäe tee 43, 45 ja 47 juures","/object/view/1685"
"5",1686,24.646117274505,"children","Haabersti",59.409511797025,"Õismäe tee 55a","/object/view/1686"
"6",1687,24.637903851622,"children","Haabersti",59.41550309846,"Paldiski mnt 183a","/object/view/1687"
"7",1689,24.639314650306,"children","Haabersti",59.417890433073,"Õismäe tee õueala 7","/object/view/1689"
"8",1691,24.643235852634,"children","Haabersti",59.420218003333,"Õismäe tee õueala 8","/object/view/1691"
"9",1693,24.646775588724,"children","Haabersti",59.421556114661,"Päevalille tn 9a","/object/view/1693"
"10",1695,24.652458862773,"children","Haabersti",59.41460740597,"Õismäe tee 150b","/object/view/1695"
"11",1696,24.651309128715,"children","Haabersti",59.413293160127,"Õismäe tee T3","/object/view/1696"
"12",1698,24.644642535764,"children","Haabersti",59.412141328322,"Õismäe tee 54a","/object/view/1698"
"13",1699,24.641272508134,"children","Haabersti",59.414415353812,"Õismäe tee 74a","/object/view/1699"
"14",1701,24.641360445565,"children","Haabersti",59.416859287631,"Õismäe tee 106a","/object/view/1701"
"15",1702,24.649174391546,"children","Haabersti",59.41033069391,"Õismäe tee õueala 3","/object/view/1702"
"16",1705,24.643642270282,"children","Haabersti",59.410223226805,"Õismäe tee õueala 4","/object/view/1705"
"17",1706,24.643473344583,"children","Haabersti",59.410997040597,"Õismäe tee õueala 4","/object/view/1706"
"18",1708,24.63896195124,"children","Haabersti",59.411327286617,"Õismäe tee õueala 5","/object/view/1708"
"19",1710,24.637481630669,"children","Haabersti",59.413421736404,"Õismäe tee õueala 6","/object/view/1710"
"20",1722,24.644620517839,"children","Haabersti",59.418614107828,"Õismäe tee 118a","/object/view/1722"
"21",1724,24.651403274676,"children","Haabersti",59.41660627932,"Õismäe tee 150b","/object/view/1724"
"22",1728,24.634283274303,"children","Haabersti",59.408525672408,"Järveotsa tee õueala 1","/object/view/1728"
"23",1729,24.636952307266,"children","Haabersti",59.408329642676,"Järveotsa tee 17b","/object/view/1729"
"24",1731,24.638374861317,"children","Haabersti",59.408206319779,"Järveotsa tee õueala 2","/object/view/1731"
"25",1733,24.641295899525,"children","Haabersti",59.408007195202,"Järveotsa tee 35c","/object/view/1733"
"26",1734,24.642925619381,"children","Haabersti",59.407884045661,"Järveotsa tee 47a","/object/view/1734"
"27",1738,24.629314643224,"children","Haabersti",59.407912352711,"Paldiski mnt 227c","/object/view/1738"
"28",1739,24.698440892085,"children","Haabersti",59.428688187495,"Pirni tn 4a","/object/view/1739"
"29",1741,24.657718642819,"children","Haabersti",59.413688484389,"Õismäe tee 199a","/object/view/1741"
"30",1744,24.654955051219,"children","Haabersti",59.4163140524,"Ehitajate tee õueala 2","/object/view/1744"
"31",1745,24.653780646076,"children","Haabersti",59.41721238926,"Õismäe tee 191a","/object/view/1745"
"32",1748,24.631120775946,"children","Haabersti",59.403814434361,"Astangu tn 30c","/object/view/1748"
"33",1750,24.635367976437,"children","Haabersti",59.403500921712,"Astangu tn 38a","/object/view/1750"
"34",1751,24.637079244648,"children","Haabersti",59.403291184061,"Astangu tn 44a","/object/view/1751"
"35",1754,24.639991590017,"children","Haabersti",59.404524985038,"Astangu tn 52a","/object/view/1754"
"36",1755,24.640931217201,"children","Haabersti",59.404476975565,"Astangu tn 66b","/object/view/1755"
"37",1764,24.588239846874,"children","Haabersti",59.440037580496,"Sumba tänav","/object/view/1764"
"38",1766,24.585513206471,"children","Haabersti",59.438815901164,"Västra tänav","/object/view/1766"
"39",1767,24.583845648146,"children","Haabersti",59.439074020529,"Abara tänav T1","/object/view/1767"
"40",1768,24.735924565607,"children","Kesklinn",59.416433905338,"Asula 13","/object/view/1768"
"41",1769,24.732720524467,"children","Kesklinn",59.433074841496,"Falgi park","/object/view/1769"
"42",1770,24.735525901572,"children","Kesklinn",59.434377373754,"Hirvepark","/object/view/1770"
"43",1774,24.742467475919,"children","Kesklinn",59.414346752133,"Juurdeveo tn 13 // Kauba tn 15","/object/view/1774"
"44",1776,24.753252213802,"children","Kesklinn",59.422769736041,"Vaikne park","/object/view/1776"
"45",1777,24.737441178296,"children","Kesklinn",59.421902221866,"Koidu tn 112 ","/object/view/1777"
"46",1779,24.771944187172,"children","Kesklinn",59.428386426669,"Lastekodu tn 32","/object/view/1779"
"47",1781,24.752053873541,"children","Kesklinn",59.439969385529,"Kanuti aed","/object/view/1781"
"48",1782,24.755369821376,"children","Kesklinn",59.431894379502,"Lembitu park","/object/view/1782"
"49",1784,24.765981416533,"children","Kesklinn",59.434008034035,"Politseiaed","/object/view/1784"
"50",1786,24.733509757672,"children","Kesklinn",59.427543075187,"Suur-Ameerika tn 35a","/object/view/1786"
"51",1787,24.743636975396,"children","Kesklinn",59.441542809542,"Tornide väljak","/object/view/1787"
"52",1788,24.766065848822,"children","Kesklinn",59.427327708878,"Püssirohu tn 5","/object/view/1788"
"53",1789,24.725020426885,"children","Kristiine",59.403467331781,"Seebi tn 34","/object/view/1789"
"54",1790,24.716914194824,"children","Kristiine",59.41451472392,"Nõmme tee 52 ","/object/view/1790"
"55",1792,24.709472858197,"children","Kristiine",59.404123126071,"Nõmme tee 107 plats 1","/object/view/1792"
"56",1794,24.70998934763,"children","Kristiine",59.429349132508,"Vaarika tn 15a","/object/view/1794"
"57",1795,24.724227283523,"children","Kristiine",59.408434778595,"Tondi tn 46","/object/view/1795"
"58",1796,24.710618813214,"children","Kristiine",59.426177628651,"Mooni tn 30d","/object/view/1796"
"59",1799,24.702804238623,"children","Kristiine",59.422142024083,"Kirsi tn 8a","/object/view/1799"
"60",1800,24.700768952822,"children","Kristiine",59.419876615549,"Kuldnoka tn 12a","/object/view/1800"
"61",1801,24.719746815384,"children","Kristiine",59.400378873893,"Järve tn 25a","/object/view/1801"
"62",1803,24.728212824468,"children","Kristiine",59.42172377531,"Kotka tn 8a","/object/view/1803"
"63",1805,24.705722134818,"children","Kristiine",59.420448858525,"Tedre tn 77a","/object/view/1805"
"64",1807,24.704035880239,"children","Kristiine",59.420725770225,"Tedre tn 81a","/object/view/1807"
"65",1808,24.849828886861,"children","Lasnamäe",59.438566025499,"Anni tn 8b/ Vilisuu tn 15","/object/view/1808"
"66",1809,24.844283064319,"children","Lasnamäe",59.443837449595,"Arbu tn 13a","/object/view/1809"
"67",1814,24.836866384303,"children","Lasnamäe",59.438058767904,"M. Härma tn 1a","/object/view/1814"
"68",1816,24.829983841923,"children","Lasnamäe",59.437354294218,"Kalevipoja põik 2b","/object/view/1816"
"69",1817,24.834924049588,"children","Lasnamäe",59.435421643998,"Punane tn 43c","/object/view/1817"
"70",1822,24.849139508532,"children","Lasnamäe",59.449498694786,"Paasiku 3 plats 1","/object/view/1822"
"71",1825,24.863334498559,"children","Lasnamäe",59.453437000538,"Kihnu tn 1a","/object/view/1825"
"72",1829,24.872723242494,"children","Lasnamäe",59.445494243789,"Kivila tn 19a","/object/view/1829"
"73",1830,24.8699461552,"children","Lasnamäe",59.444037822481,"Kivila tn 18a","/object/view/1830"
"74",1833,24.875858150321,"children","Lasnamäe",59.444985389532,"Kivila tn 34a","/object/view/1833"
"75",1837,24.866854283743,"children","Lasnamäe",59.446089807178,"Kivila tn 5a (Kivila peremänguväljak plats 1)","/object/view/1837"
"76",1838,24.872257825593,"children","Lasnamäe",59.448001125509,"Muhu tn 10b","/object/view/1838"
"77",1840,24.794716311732,"children","Lasnamäe",59.425708214207,"Tuulemäe tn 4a","/object/view/1840"
"78",1845,24.834383216521,"children","Lasnamäe",59.441048733574,"Võru tn 4","/object/view/1845"
"79",1847,24.885843968748,"children","Lasnamäe",59.447005271451,"K. Kärberi tn 23a","/object/view/1847"
"80",1848,24.885313729985,"children","Lasnamäe",59.445332262549,"K. Kärberi tn 22a","/object/view/1848"
"81",1849,24.891160335349,"children","Lasnamäe",59.448090101488,"K. Kärberi tn 37a","/object/view/1849"
"82",1854,24.893855362658,"children","Lasnamäe",59.447161862882,"K. Kärberi tn 60a","/object/view/1854"
"83",1862,24.866168813256,"children","Lasnamäe",59.448403795203,"Muhu tn 2a","/object/view/1862"
"84",1864,24.871538699144,"children","Lasnamäe",59.450801934075,"Linnamäe tee 25b","/object/view/1864"
"85",1865,24.877197649586,"children","Lasnamäe",59.450543812894,"Linnamäe tee 45b","/object/view/1865"
"86",1868,24.883408458627,"children","Lasnamäe",59.449955712956,"Linnamäe tee 81a","/object/view/1868"
"87",1869,24.884789236218,"children","Lasnamäe",59.449978391941,"Linnamäe tee 85a","/object/view/1869"
"88",1871,24.840756911771,"children","Lasnamäe",59.441526613891,"Liikuri tn 68a // Loitsu tn 2a","/object/view/1871"
"89",1872,24.839843509658,"children","Lasnamäe",59.442056061541,"Liikuri tn 68a // Loitsu tn 2a","/object/view/1872"
"90",1873,24.837984067672,"children","Lasnamäe",59.442189351357,"Loitsu tn 3b","/object/view/1873"
"91",1874,24.872046108439,"children","Lasnamäe",59.452619760579,"Läänemere tee 20b","/object/view/1874"
"92",1876,24.862651261071,"children","Lasnamäe",59.451702976157,"Kihnu tn 2a // Läänemere tee 1a","/object/view/1876"
"93",1878,24.885012857421,"children","Lasnamäe",59.453181851277,"Läänemere tee 41a","/object/view/1878"
"94",1879,24.88534490798,"children","Lasnamäe",59.452064767224,"Läänemere tee 62a","/object/view/1879"
"95",1882,24.871842020143,"children","Lasnamäe",59.441185279801,"Mahtra tn 12a","/object/view/1882"
"96",1883,24.872948943693,"children","Lasnamäe",59.439643200525,"Mahtra tn 26a","/object/view/1883"
"97",1886,24.875088735295,"children","Lasnamäe",59.438686362061,"Mahtra tn 42b","/object/view/1886"
"98",1887,24.878880798643,"children","Lasnamäe",59.439618337803,"Mahtra tn 52a","/object/view/1887"
"99",1890,24.879340247066,"children","Lasnamäe",59.440925895176,"Mahtra tn 68a","/object/view/1890"
"100",1892,24.794844167712,"children","Lasnamäe",59.427865433037,"Sikupilli tn 14a","/object/view/1892"
"101",1897,24.863784758652,"children","Lasnamäe",59.447939577081,"Linnamäe tee 2b","/object/view/1897"
"102",1902,24.816800974745,"children","Lasnamäe",59.43477235286,"Pae tn 58a","/object/view/1902"
"103",1905,24.819382362763,"children","Lasnamäe",59.434854799491,"Pae tn 58a","/object/view/1905"
"104",1909,24.821021842735,"children","Lasnamäe",59.438190618517,"Pae tn 59a","/object/view/1909"
"105",1912,24.826454073449,"children","Lasnamäe",59.43680701709,"Paekaare tn 38a","/object/view/1912"
"106",1914,24.824928720763,"children","Lasnamäe",59.435698446467,"Pae tn 68a // Paekaare tn 54a","/object/view/1914"
"107",1916,24.816089932632,"children","Lasnamäe",59.436498313147,"Pae tn 51b","/object/view/1916"
"108",1923,24.841905317957,"children","Lasnamäe",59.437010405629,"Pikri tn 3a","/object/view/1923"
"109",1929,24.832027430348,"children","Lasnamäe",59.438177305196,"Kalevipoja tänav plats 1","/object/view/1929"
"110",1930,24.813069088785,"children","Lasnamäe",59.432541845644,"Punane tn 5a","/object/view/1930"
"111",1935,24.825458175663,"children","Lasnamäe",59.434071524922,"Punane tn 35a","/object/view/1935"
"112",1936,24.845821936705,"children","Lasnamäe",59.436821498184,"Pikri tn 4a","/object/view/1936"
"113",1940,24.879604454333,"children","Lasnamäe",59.442428948531,"Raadiku tn 3a","/object/view/1940"
"114",1942,24.887981653412,"children","Lasnamäe",59.443624212638,"Raadiku tn 25","/object/view/1942"
"115",1945,24.899515883196,"children","Lasnamäe",59.444152224489,"Ümera tn 50b","/object/view/1945"
"116",1951,24.843525601824,"children","Lasnamäe",59.438508253277,"Vikerlase tn 20a","/object/view/1951"
"117",1954,24.845877311561,"children","Lasnamäe",59.441415731609,"Virbi tn 18a","/object/view/1954"
"118",1956,24.873268800743,"children","Lasnamäe",59.454249804852,"Vormsi tn 5 plats 1","/object/view/1956"
"119",1961,24.83291025864,"children","Lasnamäe",59.44290847969,"Võru tn 16a","/object/view/1961"
"120",1965,24.895921038642,"children","Lasnamäe",59.444006370874,"Ümera tn 21a","/object/view/1965"
"121",1969,24.898960035929,"children","Lasnamäe",59.445844948697,"Ümera tn 56a","/object/view/1969"
"122",1972,24.671132110766,"children","Mustamäe",59.397693043825,"Akadeemia tee 2a","/object/view/1972"
"123",1976,24.660821870314,"children","Mustamäe",59.40080419434,"Akadeemia tee 54a","/object/view/1976"
"124",1978,24.658688350436,"children","Mustamäe",59.402739690309,"Akadeemia tee 60b","/object/view/1978"
"125",1981,24.660435216435,"children","Mustamäe",59.404010034967,"E. Vilde tee 130a","/object/view/1981"
"126",1985,24.668081142507,"children","Mustamäe",59.403161271653,"Ehitajate tee 49a","/object/view/1985"
"127",1989,24.670409143485,"children","Mustamäe",59.406897960367,"Ehitajate tee 74a","/object/view/1989"
"128",2020,24.660692639812,"children","Mustamäe",59.406142768622,"Kadaka tee 155a","/object/view/2020"
"129",2024,24.658924078881,"children","Mustamäe",59.404746399047,"Akadeemia tee 68b // Kadaka tee 171a","/object/view/2024"
"130",2033,24.678034266439,"children","Mustamäe",59.40337041269,"Mustamäe tee 118a","/object/view/2033"
"131",2034,24.689235137913,"children","Mustamäe",59.410347151834,"Mustamäe tee 151a","/object/view/2034"
"132",2037,24.676099826827,"children","Mustamäe",59.407605079165,"A. H. Tammsaare tee 139a","/object/view/2037"
"133",2038,24.677357566132,"children","Põhja-Tallinn",59.455602621811,"Ankru tn 2b","/object/view/2038"
"134",2039,24.738101846233,"children","Põhja-Tallinn",59.444956601756,"Vana-Kalamaja tn 15","/object/view/2039"
"135",2040,24.711901676667,"children","Põhja-Tallinn",59.445768512952,"Rukki tn 8","/object/view/2040"
"136",2041,24.708605585216,"children","Põhja-Tallinn",59.445045866687,"Rukki tn 20a","/object/view/2041"
"137",2044,24.724081353555,"children","Põhja-Tallinn",59.438131565328,"Heina tn 1","/object/view/2044"
"138",2045,24.686143522024,"children","Põhja-Tallinn",59.442871700854,"Pelgurand (plats Pelgurana 59 vastas)","/object/view/2045"
"139",2046,24.685268329379,"children","Põhja-Tallinn",59.441445552386,"Pelgurand (plats rongiga)","/object/view/2046"
"140",2047,24.684316999615,"children","Põhja-Tallinn",59.441159654138,"Pelgurand (plats püstpalk piirdega)","/object/view/2047"
"141",2048,24.68514001886,"children","Põhja-Tallinn",59.443530148154,"Pelgurand (fitnesselemendid)","/object/view/2048"
"142",2049,24.683838511721,"children","Põhja-Tallinn",59.440875442547,"Pelgurand (plats võrkronilaga)","/object/view/2049"
"143",2050,24.684963186263,"children","Põhja-Tallinn",59.440854229111,"Pelgurand (plats linnupesakiigega)","/object/view/2050"
"144",2051,24.683511809411,"children","Põhja-Tallinn",59.439887708616,"Pelgurand (plats vana metallronilaga)","/object/view/2051"
"145",2052,24.710807352112,"children","Põhja-Tallinn",59.452823635579,"Karjamaa tn 5","/object/view/2052"
"146",2053,24.713765565603,"children","Põhja-Tallinn",59.450207600803,"Erika tn 5b","/object/view/2053"
"147",2054,24.703019170241,"children","Põhja-Tallinn",59.441184846674,"Kolde pst 76a","/object/view/2054"
"148",2056,24.69566995794,"children","Põhja-Tallinn",59.444674575309,"Vihuri tn 5a","/object/view/2056"
"149",2057,24.688504570943,"children","Põhja-Tallinn",59.449003357019,"Randla tn 16a","/object/view/2057"
"150",2058,24.686096963964,"children","Põhja-Tallinn",59.452908893349,"Kopli tn 69c // Kopli kalmistupark","/object/view/2058"
"151",2059,24.698587003908,"children","Põhja-Tallinn",59.459296713236,"Laevastiku tn 1c","/object/view/2059"
"152",2060,24.703579233811,"children","Mustamäe",59.400762510266,"Retke tee 6a ","/object/view/2060"
"153",2061,24.705024925959,"children","Mustamäe",59.399251414111,"Retke tee 30b","/object/view/2061"
"154",2062,24.704891756751,"children","Mustamäe",59.402185012971,"Retke tee 6a","/object/view/2062"
"155",2063,24.693134482156,"children","Mustamäe",59.397245981252,"J. Sütiste tee 22a","/object/view/2063"
"156",2064,24.688590851514,"children","Mustamäe",59.398395815526,"Sõpruse pst 233a","/object/view/2064"
"157",2065,24.718641936595,"children","Põhja-Tallinn",59.437322095889,"Ristiku tn 16","/object/view/2065"
"158",2066,24.690191948409,"children","Põhja-Tallinn",59.450695898175,"Lõime tn 19a","/object/view/2066"
"159",2067,24.689028168468,"children","Põhja-Tallinn",59.45115246378,"Lõime tn 20a","/object/view/2067"
"160",2068,24.703240020961,"children","Põhja-Tallinn",59.442320787593,"Sõle tn 41a","/object/view/2068"
"161",2069,24.693562493579,"children","Põhja-Tallinn",59.449499394246,"Ketraja tn 3a","/object/view/2069"
"162",2072,24.854066623418,"children","Pirita",59.456521407705,"Tammetõru tn 2","/object/view/2072"
"163",2073,24.839144280476,"children","Pirita",59.494393187407,"Väina tee 29a","/object/view/2073"
"164",2074,24.869624867984,"children","Pirita",59.491099795183,"Aianduse tee 70a ","/object/view/2074"
"165",2076,24.831531054311,"children","Pirita",59.457527662077,"Lehise tn 4a ","/object/view/2076"
"166",2078,24.832715032464,"children","Pirita",59.467724109517,"Pirita rannaala","/object/view/2078"
"167",2079,24.724909539446,"children","Nõmme",59.392521333953,"Pärnu mnt 145","/object/view/2079"
"168",2080,24.623760582014,"children","Nõmme",59.368480573466,"Rohula tn 30a","/object/view/2080"
"169",2081,24.633538133173,"children","Nõmme",59.361100809087,"Tirdi tn 12","/object/view/2081"
"170",2082,24.719524857469,"children","Nõmme",59.376912094169,"Mahla tn 56","/object/view/2082"
"171",2083,24.692356797696,"children","Nõmme",59.371996805888,"Pääsküla raba","/object/view/2083"
"172",2085,24.612171204524,"children","Nõmme",59.358260914938,"Soovildiku tn 16","/object/view/2085"
"173",2086,24.635637011526,"children","Nõmme",59.382039848753,"Tammepärja tn 2a","/object/view/2086"
"174",2087,24.63648142295,"children","Nõmme",59.366664867443,"Liipri tn 8","/object/view/2087"
"175",2089,24.660684676428,"children","Nõmme",59.384989049139,"Harku tn 62","/object/view/2089"
"176",2090,24.667199119791,"children","Nõmme",59.367370508654,"Ilmarise tn 51","/object/view/2090"
"177",2091,24.705468653108,"children","Nõmme",59.379882269654,"Lootuse puiestik","/object/view/2091"
"178",2092,24.715964967683,"children","Nõmme",59.375084401265,"Männiku tee 92b","/object/view/2092"
"179",2093,24.744675358179,"children","Nõmme",59.376146728908,"Piibri tn 2 // Valdeku tn 166","/object/view/2093"
"180",2094,24.626780436009,"children","Nõmme",59.353948328782,"Tammede pst 2a","/object/view/2094"
"181",2095,24.658237980119,"children","Nõmme",59.387645092339,"Torni tn 4a","/object/view/2095"
"182",2096,24.693103049921,"children","Nõmme",59.390414509398,"Piiri tn 8a","/object/view/2096"
"183",2097,24.642247453829,"children","Nõmme",59.369197649774,"Ränduri tn 4","/object/view/2097"
"184",2098,24.71077394072,"children","Nõmme",59.375048241505,"Võidu tn 60","/object/view/2098"
"185",2099,24.711343871489,"children","Nõmme",59.381200740888,"Võidu puiestik","/object/view/2099"
"186",2100,24.698867411981,"children","Nõmme",59.38267900906,"Õie tn 40 ","/object/view/2100"
"187",2101,24.656551086116,"children","Nõmme",59.373632472253,"J.V. Jannseni tn 24","/object/view/2101"
"188",2102,24.631130623524,"children","Nõmme",59.37356129966,"Päikese puiestee T3","/object/view/2102"
"189",2103,24.642639528971,"children","Nõmme",59.379955853991,"Hommiku tn 4e","/object/view/2103"
"190",2104,24.682557750963,"children","Nõmme",59.379638299777,"Sihi tn 98","/object/view/2104"
"191",2105,24.71353998067,"children","Nõmme",59.391595606506,"Tallinna tn 22","/object/view/2105"
"192",2106,24.707580724575,"children","Nõmme",59.387614681597,"Näituse tn 8","/object/view/2106"
"193",2107,24.639397520151,"children","Nõmme",59.38607519148,"Tihniku tn 1","/object/view/2107"
"194",2108,24.681803640465,"children","Nõmme",59.388929530187,"Üliõpilaste tee 3 (Turu plats 5 kõrval)","/object/view/2108"
"195",2109,24.678278102924,"children","Nõmme",59.376843248404,"Vabaduse pst 96 ","/object/view/2109"
"196",2110,24.699305874196,"children","Nõmme",59.374223192979,"Valdeku park","/object/view/2110"
"197",2114,24.680476623294,"children","Mustamäe",59.396651384468,"J. Sütiste tee 33a","/object/view/2114"
"198",2129,24.698263730512,"children","Mustamäe",59.39963255077,"J. Sütiste tee 7b","/object/view/2129"
"199",2133,24.704772098747,"children","Mustamäe",59.405568489554,"A. H. Tammsaare tee 68 // Sõpruse pst 177","/object/view/2133"
"200",2134,24.701306051457,"children","Mustamäe",59.407489239917,"Sõpruse pst 194a","/object/view/2134"
"201",2139,24.690847265842,"children","Mustamäe",59.399016222902,"J. Sütiste tee 4a","/object/view/2139"
"202",2143,24.696549663613,"children","Mustamäe",59.403878082111,"Sõpruse pst 208a","/object/view/2143"
"203",2158,24.693312914819,"children","Mustamäe",59.406542692543,"A. H. Tammsaare tee 79b","/object/view/2158"
"204",2168,24.682608807829,"children","Mustamäe",59.403487842243,"E. Vilde tee 79a // Mustamäe tee 181a","/object/view/2168"
"205",2172,24.691458478396,"children","Mustamäe",59.412714699415,"Mustamäe tee 137b","/object/view/2172"
"206",2177,24.684555942502,"children","Mustamäe",59.406202749729,"Mustamäe tee 169a","/object/view/2177"
"207",2182,24.680444212008,"children","Mustamäe",59.401209345492,"Mustamäe tee 199a","/object/view/2182"
"208",2185,24.676551065766,"children","Mustamäe",59.400282531906,"Keskuse tn 1 // Sõpruse pst 252 plats 1","/object/view/2185"
"209",2186,24.700576641685,"children","Mustamäe",59.400361532951,"J. Sütiste tee 7b","/object/view/2186"
"210",2189,24.696499748188,"children","Kristiine",59.417367875442,"Mustamäe tee 59a plats 1","/object/view/2189"
"211",2190,24.649649178364,"children","Haabersti",59.416915149079,"Õismäe tee 22a plats 2","/object/view/2190"
"212",2191,24.683594723232,"children","Põhja-Tallinn",59.440376059358,"Pelgurand (plats laevaga)","/object/view/2191"
"213",2192,24.837447240402,"children","Pirita",59.457134920542,"Pähkli tn 2","/object/view/2192"
"214",2193,24.852338625857,"children","Pirita",59.491951752698,"Kesktee 65","/object/view/2193"
"215",2194,24.874764556234,"children","Pirita",59.459462065395,"Rahvakooli tee 3","/object/view/2194"
"216",2195,24.852439055008,"children","Pirita",59.458997742823,"Lükati tee 2","/object/view/2195"
"217",2196,24.717301389688,"children","Kristiine",59.427170186285,"Endla tn 49b","/object/view/2196"
"218",2197,24.723923680182,"children","Kristiine",59.41683953022,"Tedre tn 29a","/object/view/2197"
"219",2198,24.730928477477,"children","Kristiine",59.416121542575,"Kotka tn 14a // Tedre tn 2b","/object/view/2198"
"220",2199,24.723023628183,"children","Kristiine",59.403037559171,"Seebi tn 36b","/object/view/2199"
"221",2200,24.826521944653,"children","Lasnamäe",59.44265287184,"Liikuri tn 58 plats 1 ","/object/view/2200"
"222",2201,24.73239516554,"children","Põhja-Tallinn",59.449405538104,"Kungla tn 63 (Kalamaja kalmistupark)","/object/view/2201"
"223",2202,24.641420672519,"children","Haabersti",59.40361305201,"Astangu tn 74","/object/view/2202"
"224",2203,24.764619968192,"children","Kesklinn",59.43184138247,"Lastekodu tn 3a // Tartu mnt 28b","/object/view/2203"
"225",2204,24.765788011778,"children","Kesklinn",59.436994612615,"Narva mnt 14a","/object/view/2204"
"226",2205,24.693894879911,"children","Põhja-Tallinn",59.443566907669,"Puhangu tn 53a","/object/view/2205"
"227",2206,24.759936258695,"children","Kesklinn",59.427372183834,"Juhkentali tn 10","/object/view/2206"
"228",2207,24.761747973016,"children","Kesklinn",59.43673395973,"aneeži tn 5a // V. Reimani tn 2a","/object/view/2207"
"229",2208,24.710885148613,"children","Kristiine",59.39555577884,"Energia tn 2b","/object/view/2208"
"230",2209,24.703652594328,"children","Kristiine",59.424146464808,"Sõstra tn 1a","/object/view/2209"
"231",2210,24.694146980197,"children","Mustamäe",59.40432857479,"E. Vilde tee 54","/object/view/2210"
"232",2212,24.653859526105,"children","Nõmme",59.389616167675,"Külmallika tn 15a","/object/view/2212"
"233",2213,24.665105339984,"children","Nõmme",59.389422691442,"Üliõpilaste tee 3","/object/view/2213"
"234",2214,24.687415904736,"children","Nõmme",59.385680842893,"Mai tn 1","/object/view/2214"
"235",2215,24.717347279857,"children","Nõmme",59.388100646795,"Vabaduse pst 4","/object/view/2215"
"236",2216,24.674757474544,"children","Põhja-Tallinn",59.454164802389,"Ankru tn 14","/object/view/2216"
"237",2217,24.693249596249,"children","Põhja-Tallinn",59.444721269978,"Randla tn 23a/Vihuri tn 8a","/object/view/2217"
"238",2218,24.724194922185,"children","Põhja-Tallinn",59.473191676902,"Pikakari supelrand","/object/view/2218"
"239",2219,24.791125606002,"children","Lasnamäe",59.431863145279,"Asunduse tn 7h","/object/view/2219"
"240",2222,24.575454398276,"children","Haabersti",59.44880056895,"Räime tn 52 plats 1","/object/view/2222"
"241",2223,24.779445442189,"children","Kesklinn",59.435697251784,"J.Poska tn 15 ","/object/view/2223"
"242",2226,24.724633732541,"children","Kristiine",59.424012592264,"Tulika tn 64b","/object/view/2226"
"243",2228,24.708716083853,"children","Põhja-Tallinn",59.452859371308,"Karjamaa tn 3 plats 1","/object/view/2228"
"244",2229,24.890488432541,"children","Lasnamäe",59.441722314933,"Ümera tn 22a","/object/view/2229"
"245",2231,24.806107368323,"children","Lasnamäe",59.43317297571,"Paepargi tn 9 // Pallasti tn 56 plats 1","/object/view/2231"
"246",2232,24.678132980118,"children","Mustamäe",59.399139723508,"Keskuse tn 1 // Sõpruse pst 252 plats 5","/object/view/2232"
"247",2233,24.677156656036,"children","Mustamäe",59.399893410482,"Keskuse tn 1 // Sõpruse pst 252 plats 3 ","/object/view/2233"
"248",2234,24.677607267151,"children","Mustamäe",59.399568453299,"Keskuse tn 1 // Sõpruse pst 252 plats 4","/object/view/2234"
"249",2235,24.674356429825,"children","Mustamäe",59.399407338918,"Keskuse tn 1 // Sõpruse pst 252 plats 6","/object/view/2235"
"250",2236,24.699425092868,"children","Mustamäe",59.406722697932,"Sipelga tn 6a","/object/view/2236"
"251",2237,24.622343001852,"children","Haabersti",59.432708179199,"Tanuma tn 91b","/object/view/2237"
"252",2238,24.746076488916,"children","Kesklinn",59.442846310853,"Rannamäe tee 11","/object/view/2238"
"253",2239,24.823267228305,"children","Pirita",59.453809578447,"Tamme tn 31","/object/view/2239"
"254",2240,24.602287184656,"children","Haabersti",59.442642737927,"Mirta tn 16","/object/view/2240"
"255",2241,24.605305988361,"children","Haabersti",59.442282846098,"Mirta tn 35a","/object/view/2241"
"256",2242,24.739206797778,"children","Kesklinn",59.429137809424,"Suur-Ameerika tn 14a","/object/view/2242"
"257",2244,24.631683105557,"children","Nõmme",59.362735149651,"Vabaduse pst 205","/object/view/2244"
"258",2246,24.64976033373,"children","Haabersti",59.417151142749,"Õismäe tee 22a plats 1","/object/view/2246"
"259",2249,24.697014458089,"children","Kristiine",59.41755883699,"Mustamäe tee 59a plats 2","/object/view/2249"
"260",2250,24.697448975949,"children","Kristiine",59.417520626828,"Mustamäe tee 59a plats 3","/object/view/2250"
"261",2251,24.778692772491,"children","Kesklinn",59.430742532989,"J. Vilmsi tn 52c","/object/view/2251"
"262",2252,24.740820144181,"children","Kesklinn",59.425253296474,"Kesk-Luha tänav // Kristiina tänav // Toom-Kuninga tänav T2 // Uue Maailma tänav // Virmalise tänav T1 // Väike-Ameerika tänav T1","/object/view/2252"
"263",2253,24.709654616672,"children","Kristiine",59.403851758692,"Nõmme tee 107 plats 2","/object/view/2253"
"264",2254,24.710030125934,"children","Kristiine",59.40331659596,"Nõmme tee 107 plats 3","/object/view/2254"
"265",2255,24.70983025159,"children","Põhja-Tallinn",59.452859093247,"Karjamaa tn 3 plats 2","/object/view/2255"
"266",2256,24.867001295245,"children","Lasnamäe",59.446358626616,"Muhu tn 8b (Kivila peremänguväljak plats 2)","/object/view/2256"
"267",2258,24.867902517474,"children","Lasnamäe",59.44645679754,"Muhu tn 8b (Kivila peremänguväljak plats 3)","/object/view/2258"
"268",2259,24.826792259524,"children","Lasnamäe",59.442503645163,"Liikuri tn 58 plats 2","/object/view/2259"
"269",2260,24.826416750262,"children","Lasnamäe",59.44238637171,"Liikuri tn 58 plats 3","/object/view/2260"
"270",2261,24.832527275671,"children","Lasnamäe",59.438254783254,"Kalevipoja tänav plats 2","/object/view/2261"
"271",2263,24.805779677524,"children","Lasnamäe",59.433198059518,"Paepargi tn 9 // Pallasti tn 56 plats 2","/object/view/2263"
"272",2264,24.873942035413,"children","Lasnamäe",59.454162357077,"Vormsi tn 5 plats 2","/object/view/2264"
"273",2265,24.87462868092,"children","Lasnamäe",59.453769761137,"Vormsi tn 5 plats 3","/object/view/2265"
"274",2266,24.575814658692,"children","Haabersti",59.44913877771,"Räime tn 52 plats 2","/object/view/2266"
"275",2267,24.677266945508,"children","Mustamäe",59.40027147086,"Keskuse tn 1 // Sõpruse pst 252 plats 2","/object/view/2267"
"276",2270,24.84917110105,"children","Lasnamäe",59.449256277095,"Paasiku 3 plats 2","/object/view/2270"
"277",2271,24.849857746558,"children","Lasnamäe",59.449365346537,"Paasiku 3 plats 3","/object/view/2271"
"278",2272,24.608552586647,"children","Haabersti",59.441715798888,"Mirta tn 43","/object/view/2272"
"279",2273,24.614163269906,"children","Nõmme",59.36106096557,"Laaniku tn 1b","/object/view/2273"
"280",2277,24.881275806885,"children","Lasnamäe",59.448443488669,"Linnamäe tee 28a plats treeningelementidega","/object/view/2277"
"281",2278,24.882509623032,"children","Lasnamäe",59.44712368882,"Linnamäe tee 28a plats 1-4 aastastele","/object/view/2278"
"282",2279,24.882906589966,"children","Lasnamäe",59.448056280003,"Linnamäe tee 28a plats 4-12 aastastele","/object/view/2279"
"283",2280,24.880492601852,"children","Lasnamäe",59.447985382161,"Linnamäe tee 28a plats 12-16 aastastele","/object/view/2280"
"284",2283,24.852591467459,"children","Pirita",59.481866148222,"Võsa tee 26","/object/view/2283"
"285",2284,24.701771760574,"children","Mustamäe",59.408392383264,"Sõpruse pst 194a","/object/view/2284"
"286",2285,24.89235667368,"children","Lasnamäe",59.448455495013,"K. Kärberi tn 39a ","/object/view/2285"
"287",2286,24.831662551126,"children","Pirita",59.459611994689,"Pirita tee 110 plats 1","/object/view/2286"
"288",2287,24.831544533929,"children","Pirita",59.459347580828,"Pirita tee 110 plats 2","/object/view/2287"
"289",2288,24.831496254167,"children","Pirita",59.459971812291,"Pirita tee 110 plats 3","/object/view/2288"
"290",2289,24.832204357347,"children","Pirita",59.459077713003,"Pirita tee 110 plats 4","/object/view/2289"
"291",2290,24.638862511639,"children","Haabersti",59.417424577043,"Õismäe tee õueala 7","/object/view/2290"
"292",2291,0,"children","Kristiine",0,"Järve tänav T2","/object/view/2291"
"293",2292,24.886156941664,"children","Lasnamäe",59.44330325285,"Raadiku tn 19a","/object/view/2292"
"294",2293,24.686451930688,"children","Mustamäe",59.400457254614,"Sõpruse pst 234a","/object/view/2293"
"295",2294,0,"children","Haabersti",0,"Rocca al Mare rannapromenaad 2","/object/view/2294"
